[{"id":1,"name":"フレッシュローストコーヒー豆の木","pref":"北海道","city":"札幌市","lat":43.1209453,"lng":141.3117371,"tags":["cafe"],"rating":null,"reviews":0},{"id":2,"name":"Tomo's Coffee","pref":"北海道","city":"河東郡","lat":42.9477525,"lng":143.1935826,"tags":["cafe"],"rating":null,"reviews":0},{"id":3,"name":"神田珈琲園","pref":"北海道","city":"旭川市","lat":43.7741707,"lng":142.3641463,"tags":["cafe"],"rating":null,"reviews":0},{"id":4,"name":"COFFEE PICTURES","pref":"北海道","city":"札幌市","lat":43.0775083,"lng":141.3533821,"tags":["specialty"],"rating":null,"reviews":0},{"id":5,"name":"NODE","pref":"北海道","city":"札幌市","lat":43.0580491,"lng":141.3484148,"tags":["cafe"],"rating":null,"reviews":0},{"id":6,"name":"かのうち珈琲","pref":"北海道","city":"白老郡","lat":42.532752,"lng":141.27766,"tags":["cafe"],"rating":null,"reviews":0},{"id":7,"name":"自家焙煎 ジョジョ珈琲","pref":"北海道","city":"石狩市","lat":43.1677353,"lng":141.3399042,"tags":["specialty","cafe"],"rating":null,"reviews":0},{"id":8,"name":"Bunat’et'a coffee roasters","pref":"北海道","city":"夕張郡","lat":43.0633713,"lng":141.787461,"tags":["specialty"],"rating":null,"reviews":0},{"id":9,"name":"らぶこーひー自家焙煎豆店","pref":"北海道","city":"札幌市","lat":43.1690255,"lng":141.3591161,"tags":["specialty"],"rating":null,"reviews":0},{"id":10,"name":"江花珈琲焙煎所","pref":"北海道","city":"空知郡","lat":43.4549297,"lng":142.4218886,"tags":["specialty"],"rating":null,"reviews":0},{"id":11,"name":"うずまき珈琲","pref":"北海道","city":"苫小牧市","lat":42.6708022,"lng":141.6920263,"tags":["cafe"],"rating":null,"reviews":0},{"id":12,"name":"豆蔵","pref":"北海道","city":"札幌市","lat":43.1069388,"lng":141.3753266,"tags":["cafe"],"rating":null,"reviews":0},{"id":13,"name":"炭火自家焙煎珈琲 アルチザン","pref":"北海道","city":"小樽市","lat":43.1973198,"lng":140.9981814,"tags":["specialty","cafe"],"rating":null,"reviews":0},{"id":14,"name":"二とイチ珈琲豆店","pref":"北海道","city":"札幌市","lat":43.0465774,"lng":141.409575,"tags":["specialty","cafe"],"rating":null,"reviews":0},{"id":15,"name":"山岳喫茶","pref":"北海道","city":"虻田郡","lat":42.5649372,"lng":140.8214202,"tags":["cafe"],"rating":null,"reviews":0},{"id":16,"name":"BARISTART COFFEE ASAHIKAWA","pref":"北海道","city":"旭川市","lat":43.7627753,"lng":142.3826102,"tags":["cafe"],"rating":null,"reviews":0},{"id":17,"name":"家登珈琲焙煎工房","pref":"北海道","city":"札幌市","lat":43.0410118,"lng":141.3307728,"tags":["specialty","cafe"],"rating":null,"reviews":0},{"id":18,"name":"珈屋Lamp","pref":"北海道","city":"旭川市","lat":43.8005882,"lng":142.3848664,"tags":["cafe"],"rating":null,"reviews":0},{"id":19,"name":"Yagies Coffee","pref":"北海道","city":"函館市","lat":41.7840259,"lng":140.7646946,"tags":["specialty"],"rating":null,"reviews":0},{"id":20,"name":"ヨシノリコーヒー東川本店","pref":"北海道","city":"上川郡","lat":43.7174584,"lng":142.477551,"tags":["specialty"],"rating":null,"reviews":0},{"id":21,"name":"自家焙煎珈琲店 la chic. -らしく-","pref":"北海道","city":"札幌市","lat":43.0306831,"lng":141.3412504,"tags":["specialty","cafe"],"rating":null,"reviews":0},{"id":22,"name":"自家焙煎珈琲 旭川北珈館","pref":"北海道","city":"旭川市","lat":43.7930054,"lng":142.3388114,"tags":["specialty","cafe"],"rating":null,"reviews":0},{"id":23,"name":"HOKKAIDO STARBREW 札幌本店","pref":"北海道","city":"札幌市","lat":43.0572008,"lng":141.3471813,"tags":["cafe"],"rating":null,"reviews":0},{"id":24,"name":"ishidacoffeeten","pref":"北海道","city":"札幌市","lat":43.079831,"lng":141.3473642,"tags":["cafe"],"rating":null,"reviews":0},{"id":25,"name":"珈琲淹REFINEDコーヒーエン リファインド","pref":"北海道","city":"札幌市","lat":43.0604704,"lng":141.3804251,"tags":["cafe"],"rating":null,"reviews":0},{"id":26,"name":"珈琲焙煎工房 函館 美鈴","pref":"北海道","city":"札幌市","lat":43.0659116,"lng":141.3503984,"tags":["specialty"],"rating":null,"reviews":0},{"id":27,"name":"宮の森アルケミストコーヒー","pref":"北海道","city":"札幌市","lat":43.0507485,"lng":141.2984628,"tags":["specialty"],"rating":null,"reviews":0},{"id":28,"name":"ブルースの木","pref":"北海道","city":"函館市","lat":41.7615802,"lng":140.7181762,"tags":["cafe"],"rating":null,"reviews":0},{"id":29,"name":"直火焙煎阿部珈琲舘","pref":"北海道","city":"札幌市","lat":43.0480034,"lng":141.4490104,"tags":["specialty","cafe"],"rating":null,"reviews":0},{"id":30,"name":"ISHIBASHI COFFEE","pref":"北海道","city":"苫小牧市","lat":42.6207412,"lng":141.5509685,"tags":["cafe"],"rating":null,"reviews":0},{"id":31,"name":"福住珈琲焙煎店","pref":"北海道","city":"札幌市","lat":43.0121951,"lng":141.3955985,"tags":["specialty","cafe"],"rating":null,"reviews":0},{"id":32,"name":"白樺焙煎舎","pref":"北海道","city":"札幌市","lat":42.9643678,"lng":141.1639246,"tags":["specialty"],"rating":null,"reviews":0},{"id":33,"name":"珈琲問屋豆源 北17条店","pref":"北海道","city":"札幌市","lat":43.0813033,"lng":141.3455349,"tags":["specialty"],"rating":null,"reviews":0},{"id":34,"name":"舟木米穀店／舟木コーヒー","pref":"北海道","city":"釧路市","lat":42.9851172,"lng":144.3765842,"tags":["specialty"],"rating":null,"reviews":0},{"id":35,"name":"Coffee House CHAFF","pref":"北海道","city":"小樽市","lat":43.2001609,"lng":140.9967863,"tags":["cafe"],"rating":null,"reviews":0},{"id":36,"name":"マツダ珈琲","pref":"北海道","city":"札幌市","lat":42.9541113,"lng":141.2380898,"tags":["specialty","cafe"],"rating":null,"reviews":0},{"id":37,"name":"自家焙煎珈琲と生活道具の店 FABLIKET","pref":"北海道","city":"函館市","lat":41.7627345,"lng":140.7220819,"tags":["specialty","cafe"],"rating":null,"reviews":0},{"id":38,"name":"自家焙煎珈琲 ふれっぷ","pref":"北海道","city":"深川市","lat":43.7191193,"lng":142.0440293,"tags":["specialty","cafe"],"rating":null,"reviews":0},{"id":39,"name":"鳴々門紅茶","pref":"北海道","city":"函館市","lat":41.7694448,"lng":140.7095014,"tags":["cafe"],"rating":null,"reviews":0},{"id":40,"name":"くどう珈琲","pref":"北海道","city":"札幌市","lat":43.0170231,"lng":141.4534201,"tags":["specialty"],"rating":null,"reviews":0},{"id":41,"name":"Little Fort Coffee","pref":"北海道","city":"札幌市","lat":43.0502034,"lng":141.3846904,"tags":["cafe"],"rating":null,"reviews":0},{"id":42,"name":"ウトナイ珈琲焙煎所","pref":"北海道","city":"苫小牧市","lat":42.6814114,"lng":141.694762,"tags":["specialty","cafe"],"rating":null,"reviews":0},{"id":43,"name":"SPROUT","pref":"北海道","city":"虻田郡","lat":42.9018148,"lng":140.7470119,"tags":["cafe"],"rating":null,"reviews":0},{"id":44,"name":"北前屋珈琲店","pref":"北海道","city":"函館市","lat":41.7916922,"lng":140.7823592,"tags":["cafe"],"rating":null,"reviews":0},{"id":45,"name":"basic 深煎りの珈琲","pref":"北海道","city":"札幌市","lat":43.0584759,"lng":141.3415356,"tags":["cafe"],"rating":null,"reviews":0},{"id":46,"name":"自家焙煎珈琲 やかん by みちみち種や","pref":"北海道","city":"札幌市","lat":43.0897807,"lng":141.3410164,"tags":["specialty","cafe"],"rating":null,"reviews":0},{"id":47,"name":"Cafemocha","pref":"北海道","city":"虻田郡","lat":42.8573847,"lng":140.8696807,"tags":["cafe"],"rating":null,"reviews":0},{"id":48,"name":"medicine coffee beans","pref":"北海道","city":"空知郡","lat":43.4118864,"lng":142.4279511,"tags":["cafe"],"rating":null,"reviews":0},{"id":49,"name":"丸美珈琲店 大通公園本店","pref":"北海道","city":"札幌市","lat":43.0597903,"lng":141.356634,"tags":["cafe"],"rating":null,"reviews":0},{"id":50,"name":"B.BROWN","pref":"北海道","city":"旭川市","lat":43.7618963,"lng":142.3462043,"tags":["cafe"],"rating":null,"reviews":0},{"id":51,"name":"ft roaster&stand","pref":"北海道","city":"小樽市","lat":43.1640005,"lng":141.0495306,"tags":["specialty","cafe"],"rating":null,"reviews":0},{"id":52,"name":"カシオペイアコーヒー店","pref":"北海道","city":"河東郡","lat":43.003802,"lng":143.1982216,"tags":["cafe"],"rating":null,"reviews":0},{"id":53,"name":"GENE COFFEE ジーン珈琲","pref":"北海道","city":"旭川市","lat":43.7744732,"lng":142.3524044,"tags":["cafe"],"rating":null,"reviews":0},{"id":54,"name":"COFFEE SANATIC","pref":"北海道","city":"石狩郡","lat":43.1896883,"lng":141.446646,"tags":["cafe"],"rating":null,"reviews":0},{"id":55,"name":"8A GARAGE COFFEE","pref":"北海道","city":"小樽市","lat":43.144327,"lng":141.1792837,"tags":["cafe"],"rating":null,"reviews":0},{"id":56,"name":"サワダ珈琲店","pref":"北海道","city":"夕張市","lat":42.9410189,"lng":142.0426869,"tags":["specialty","cafe"],"rating":null,"reviews":0},{"id":57,"name":"コーヒーロースト山鼻ビーンズ","pref":"北海道","city":"札幌市","lat":43.0289042,"lng":141.3484323,"tags":["specialty"],"rating":null,"reviews":0},{"id":58,"name":"コーヒーロースト 美香保店","pref":"北海道","city":"札幌市","lat":43.0845739,"lng":141.3630021,"tags":["specialty"],"rating":null,"reviews":0},{"id":59,"name":"COSSETTE COFFEE","pref":"北海道","city":"登別市","lat":42.4105772,"lng":141.1004691,"tags":["cafe"],"rating":null,"reviews":0},{"id":60,"name":"丸美珈琲店 丸井今井札幌本店 コーヒー豆販売専門店【BEANS SHOP】","pref":"北海道","city":"札幌市","lat":43.060166,"lng":141.3547277,"tags":["specialty","cafe","online"],"rating":null,"reviews":0},{"id":61,"name":"Geek coffee roastery","pref":"北海道","city":"札幌市","lat":43.0815833,"lng":141.344357,"tags":["specialty","cafe"],"rating":null,"reviews":0},{"id":62,"name":"MARUMI COFFEE STAND sitatte sapporo シタッテサッポロ店","pref":"北海道","city":"札幌市","lat":43.0642239,"lng":141.351473,"tags":["cafe"],"rating":null,"reviews":0},{"id":63,"name":"自家焙煎珈琲 北工房","pref":"北海道","city":"上川郡","lat":43.5885585,"lng":142.4633498,"tags":["specialty","cafe"],"rating":null,"reviews":0},{"id":64,"name":"水花月茶寮","pref":"北海道","city":"函館市","lat":41.8125988,"lng":140.752053,"tags":["cafe"],"rating":null,"reviews":0},{"id":65,"name":"珈房ベンデドール","pref":"北海道","city":"釧路郡","lat":43.0153752,"lng":144.4077219,"tags":["cafe"],"rating":null,"reviews":0},{"id":66,"name":"豆壱","pref":"北海道","city":"函館市","lat":41.7872459,"lng":140.7527076,"tags":["cafe"],"rating":null,"reviews":0},{"id":67,"name":"DADSON COFFEE","pref":"北海道","city":"札幌市","lat":43.0289145,"lng":141.3677713,"tags":["cafe"],"rating":null,"reviews":0},{"id":68,"name":"菊地珈琲 本店","pref":"北海道","city":"札幌市","lat":43.0593633,"lng":141.32639,"tags":["cafe"],"rating":null,"reviews":0},{"id":69,"name":"マーメイドコーヒー ロースターズ 札幌","pref":"北海道","city":"札幌市","lat":43.0578179,"lng":141.357399,"tags":["specialty","cafe"],"rating":null,"reviews":0},{"id":70,"name":"Zeneral Coffee Store(ゼネラル コーヒー ストア)","pref":"北海道","city":"札幌市","lat":42.9685841,"lng":141.1714698,"tags":["cafe"],"rating":null,"reviews":0},{"id":71,"name":"清水焙煎珈琲","pref":"北海道","city":"上川郡","lat":43.0161197,"lng":142.8838719,"tags":["specialty","cafe"],"rating":null,"reviews":0},{"id":72,"name":"まじっくりぼん","pref":"北海道","city":"白老郡","lat":42.5257231,"lng":141.3006091,"tags":["specialty"],"rating":null,"reviews":0},{"id":73,"name":"自家焙煎 ふたば珈琲","pref":"北海道","city":"岩見沢市","lat":43.1664148,"lng":141.7599124,"tags":["specialty","cafe"],"rating":null,"reviews":0},{"id":74,"name":"森の暮らし 自家焙煎珈琲店ランプ","pref":"北海道","city":"紋別郡","lat":43.9196916,"lng":143.2385315,"tags":["specialty","cafe"],"rating":null,"reviews":0},{"id":75,"name":"コーヒーロースト小樽","pref":"北海道","city":"小樽市","lat":43.1717438,"lng":141.0338989,"tags":["cafe"],"rating":null,"reviews":0},{"id":76,"name":"津別珈琲","pref":"北海道","city":"網走郡","lat":43.7060972,"lng":144.0235008,"tags":["cafe"],"rating":null,"reviews":0},{"id":77,"name":"自家焙煎珈琲屋 寄り道","pref":"北海道","city":"札幌市","lat":43.0788877,"lng":141.3178404,"tags":["specialty","cafe"],"rating":null,"reviews":0},{"id":78,"name":"ふふふcafe","pref":"北海道","city":"千歳市","lat":42.8161785,"lng":141.6068263,"tags":["cafe"],"rating":null,"reviews":0},{"id":79,"name":"珈琲きゃろっと","pref":"北海道","city":"恵庭市","lat":42.9038511,"lng":141.5801259,"tags":["cafe"],"rating":null,"reviews":0},{"id":80,"name":"自家焙煎工房 珈豆","pref":"北海道","city":"札幌市","lat":43.127865,"lng":141.230597,"tags":["specialty"],"rating":null,"reviews":0},{"id":81,"name":"焙煎研究所","pref":"北海道","city":"札幌市","lat":43.0508438,"lng":141.4097638,"tags":["specialty","cafe"],"rating":null,"reviews":0},{"id":82,"name":"12COFFEE","pref":"北海道","city":"千歳市","lat":42.8310884,"lng":141.6458854,"tags":["cafe"],"rating":null,"reviews":0},{"id":83,"name":"瀟洒珈房 月織堂","pref":"北海道","city":"札幌市","lat":43.0530012,"lng":141.3542068,"tags":["cafe"],"rating":null,"reviews":0},{"id":84,"name":"自家焙煎珈琲店はち","pref":"北海道","city":"小樽市","lat":43.1873095,"lng":141.0089304,"tags":["specialty","cafe"],"rating":null,"reviews":0},{"id":85,"name":"珈琲焙煎工房・函館美鈴 帯広店","pref":"北海道","city":"帯広市","lat":42.8985284,"lng":143.1764936,"tags":["specialty","cafe"],"rating":null,"reviews":0},{"id":86,"name":"自家焙煎珈琲とライブ 紙ひこうき","pref":"北海道","city":"札幌市","lat":43.0608832,"lng":141.3586599,"tags":["specialty","cafe"],"rating":null,"reviews":0},{"id":87,"name":"TOKUMITSU COFFEE Cafe & Beans 大通店(トクミツコーヒー)","pref":"北海道","city":"札幌市","lat":43.0612549,"lng":141.3522107,"tags":["cafe"],"rating":null,"reviews":0},{"id":88,"name":"自家焙煎珈琲 風焙","pref":"北海道","city":"上川郡","lat":42.8881771,"lng":142.8758573,"tags":["specialty"],"rating":null,"reviews":0},{"id":89,"name":"コーヒースタンド28","pref":"北海道","city":"札幌市","lat":43.0271997,"lng":141.4336592,"tags":["cafe"],"rating":null,"reviews":0},{"id":90,"name":"珈琲工房 ハンズ","pref":"北海道","city":"苫小牧市","lat":42.62538,"lng":141.524153,"tags":["cafe"],"rating":null,"reviews":0},{"id":91,"name":"RITARU COFFEE","pref":"北海道","city":"札幌市","lat":43.060779,"lng":141.3163834,"tags":["cafe"],"rating":null,"reviews":0},{"id":92,"name":"(有)斎藤珈琲","pref":"北海道","city":"札幌市","lat":43.0329941,"lng":141.3334691,"tags":["specialty"],"rating":null,"reviews":0},{"id":93,"name":"Tee's coffee","pref":"北海道","city":"札幌市","lat":43.0344924,"lng":141.3669189,"tags":["specialty"],"rating":null,"reviews":0},{"id":94,"name":"板東珈琲","pref":"北海道","city":"札幌市","lat":43.0581133,"lng":141.339979,"tags":["cafe"],"rating":null,"reviews":0},{"id":95,"name":"さわの珈琲店","pref":"北海道","city":"札幌市","lat":43.0827391,"lng":141.2798572,"tags":["cafe"],"rating":null,"reviews":0},{"id":96,"name":"オーダー焙煎 豆治","pref":"北海道","city":"札幌市","lat":43.0695101,"lng":141.3544759,"tags":["specialty"],"rating":null,"reviews":0},{"id":97,"name":"小樽珈琲香房","pref":"北海道","city":"小樽市","lat":43.1962123,"lng":140.9963247,"tags":["cafe"],"rating":null,"reviews":0},{"id":98,"name":"MARUMI COFFEE STAND NAKAJIMA PARK","pref":"北海道","city":"札幌市","lat":43.0412433,"lng":141.3520319,"tags":["cafe"],"rating":null,"reviews":0},{"id":99,"name":"coffee&chocolate Marley 本店","pref":"北海道","city":"札幌市","lat":43.0535608,"lng":141.3508012,"tags":["cafe"],"rating":null,"reviews":0},{"id":100,"name":"天神山珈琲店","pref":"北海道","city":"札幌市","lat":43.0254286,"lng":141.367525,"tags":["specialty","cafe"],"rating":null,"reviews":0},{"id":101,"name":"Kinubari Coffee Roasters","pref":"北海道","city":"上川郡","lat":43.8491754,"lng":142.768823,"tags":["specialty","cafe"],"rating":null,"reviews":0},{"id":102,"name":"コーヒー豆のコッコ","pref":"北海道","city":"札幌市","lat":43.1292859,"lng":141.2472398,"tags":["specialty"],"rating":null,"reviews":0},{"id":103,"name":"髙島屋珈琲館","pref":"北海道","city":"北斗市","lat":41.8901149,"lng":140.6399692,"tags":["cafe"],"rating":null,"reviews":0},{"id":104,"name":"SAWARA COFFEE ROASTERY｜コーヒー豆専門店","pref":"北海道","city":"帯広市","lat":42.9203764,"lng":143.1382556,"tags":["specialty"],"rating":null,"reviews":0},{"id":105,"name":"琥珀庵329","pref":"北海道","city":"札幌市","lat":43.0317588,"lng":141.3927677,"tags":["specialty"],"rating":null,"reviews":0},{"id":106,"name":"珈和堂 -オーガニックコーヒー専門店-","pref":"北海道","city":"札幌市","lat":43.0697581,"lng":141.3118455,"tags":["cafe"],"rating":null,"reviews":0},{"id":107,"name":"丘の上珈琲・koyamame焙煎所","pref":"北海道","city":"夕張郡","lat":42.98201,"lng":141.7380307,"tags":["specialty","cafe"],"rating":null,"reviews":0},{"id":108,"name":"COFFEY ROAD","pref":"北海道","city":"札幌市","lat":43.1052971,"lng":141.4234176,"tags":["cafe"],"rating":null,"reviews":0},{"id":109,"name":"てん珈琲","pref":"北海道","city":"札幌市","lat":43.0818107,"lng":141.2713966,"tags":["cafe"],"rating":null,"reviews":0},{"id":110,"name":"ばいせん屋 h a b u","pref":"北海道","city":"夕張郡","lat":43.007125,"lng":141.701016,"tags":["specialty"],"rating":null,"reviews":0},{"id":111,"name":"南青山珈琲","pref":"北海道","city":"札幌市","lat":42.9982085,"lng":141.4496706,"tags":["cafe"],"rating":null,"reviews":0},{"id":112,"name":"珈和堂 琴似店-オーガニックコーヒー専門店-","pref":"北海道","city":"札幌市","lat":43.0767273,"lng":141.3028947,"tags":["specialty"],"rating":null,"reviews":0},{"id":113,"name":"Cafukuya","pref":"北海道","city":"札幌市","lat":43.0551438,"lng":141.3209586,"tags":["cafe"],"rating":null,"reviews":0},{"id":114,"name":"お諏訪さん茶房（COFFEE PICTURES）","pref":"北海道","city":"札幌市","lat":43.0759186,"lng":141.3537917,"tags":["cafe"],"rating":null,"reviews":0},{"id":115,"name":"Coffee shop 山水","pref":"北海道","city":"札幌市","lat":43.0465337,"lng":141.3395742,"tags":["cafe"],"rating":null,"reviews":0},{"id":116,"name":"PLANT SATO COFFEE","pref":"北海道","city":"札幌市","lat":43.0608006,"lng":141.3080978,"tags":["cafe"],"rating":null,"reviews":0},{"id":117,"name":"オニヤンマ コーヒー&ビア","pref":"北海道","city":"札幌市","lat":43.0588474,"lng":141.3478069,"tags":["cafe"],"rating":null,"reviews":0},{"id":118,"name":"コーヒー屋さん 月祭","pref":"北海道","city":"札幌市","lat":43.077013,"lng":141.3489693,"tags":["cafe"],"rating":null,"reviews":0},{"id":119,"name":"コーヒーと雑貨 Silk Tree","pref":"北海道","city":"札幌市","lat":43.0880202,"lng":141.2788797,"tags":["cafe"],"rating":null,"reviews":0},{"id":120,"name":"NOWHERE COFFEE ノーウェアーコーヒー","pref":"北海道","city":"札幌市","lat":43.1013388,"lng":141.3429274,"tags":["cafe"],"rating":null,"reviews":0},{"id":121,"name":"sal coffee","pref":"北海道","city":"札幌市","lat":43.05566,"lng":141.344105,"tags":["cafe"],"rating":null,"reviews":0},{"id":122,"name":"Specialty Coffee COCORO","pref":"北海道","city":"函館市","lat":41.7632508,"lng":140.7191193,"tags":["specialty"],"rating":null,"reviews":0},{"id":123,"name":"Landscape Coffee Roastery","pref":"北海道","city":"函館市","lat":41.7692425,"lng":140.7101099,"tags":["specialty","cafe"],"rating":null,"reviews":0},{"id":124,"name":"CUBERU Green＆Coffee","pref":"北海道","city":"登別市","lat":42.407128,"lng":141.1003012,"tags":["cafe"],"rating":null,"reviews":0},{"id":125,"name":"NELD COFFEE CLUB","pref":"北海道","city":"札幌市","lat":43.0590391,"lng":141.3606359,"tags":["cafe"],"rating":null,"reviews":0},{"id":126,"name":"珈琲店25番地","pref":"北海道","city":"伊達市","lat":42.4634989,"lng":140.8745926,"tags":["cafe"],"rating":null,"reviews":0},{"id":127,"name":"HOKKAIDO STARBREW","pref":"北海道","city":"北広島市","lat":42.9898069,"lng":141.5532502,"tags":["cafe"],"rating":null,"reviews":0},{"id":128,"name":"ウザワ珈琲","pref":"北海道","city":"恵庭市","lat":42.8832378,"lng":141.5812485,"tags":["cafe"],"rating":null,"reviews":0},{"id":129,"name":"ハレノヒ珈琲店","pref":"北海道","city":"河西郡","lat":42.7058344,"lng":143.1419544,"tags":["specialty","cafe"],"rating":null,"reviews":0},{"id":130,"name":"テーラードコーヒー本町店","pref":"北海道","city":"函館市","lat":41.7898309,"lng":140.7515161,"tags":["cafe"],"rating":null,"reviews":0},{"id":131,"name":"COFFEE BEANS & COOKING Co lab.","pref":"北海道","city":"札幌市","lat":43.0722948,"lng":141.301028,"tags":["specialty","cafe"],"rating":null,"reviews":0},{"id":132,"name":"GreenFive Coffee","pref":"北海道","city":"帯広市","lat":42.9226739,"lng":143.2026904,"tags":["cafe"],"rating":null,"reviews":0},{"id":133,"name":"天野珈琲 Coffee Lab 銭函","pref":"北海道","city":"小樽市","lat":43.1446385,"lng":141.1701431,"tags":["cafe"],"rating":null,"reviews":0},{"id":134,"name":"珈琲豆屋KATO","pref":"北海道","city":"札幌市","lat":43.1360248,"lng":141.2095557,"tags":["cafe"],"rating":null,"reviews":0},{"id":135,"name":"ONIYANMA BASE(オニヤンマ・ベース)","pref":"北海道","city":"札幌市","lat":43.1031057,"lng":141.3703707,"tags":["cafe"],"rating":null,"reviews":0},{"id":136,"name":"北舟岡珈琲焙煎所","pref":"北海道","city":"伊達市","lat":42.4512358,"lng":140.8812378,"tags":["specialty"],"rating":null,"reviews":0},{"id":137,"name":"MORIHICO. ROASTING&COFFEE","pref":"北海道","city":"札幌市","lat":43.060331,"lng":141.3805638,"tags":["cafe"],"rating":null,"reviews":0},{"id":138,"name":"珈琲焙煎工房 函館美鈴 大門店","pref":"北海道","city":"函館市","lat":41.7721561,"lng":140.7301872,"tags":["specialty","cafe"],"rating":null,"reviews":0},{"id":139,"name":"Hoccino Coffees","pref":"北海道","city":"帯広市","lat":42.9262985,"lng":143.2070543,"tags":["cafe"],"rating":null,"reviews":0},{"id":140,"name":"岩本珈琲","pref":"北海道","city":"札幌市","lat":43.0288822,"lng":141.4309621,"tags":["cafe"],"rating":null,"reviews":0},{"id":141,"name":"RAGTIME COFFEE","pref":"北海道","city":"江別市","lat":43.1072659,"lng":141.5165308,"tags":["cafe"],"rating":null,"reviews":0},{"id":142,"name":"B3 COFFEE","pref":"北海道","city":"","lat":43.1921537,"lng":140.9983219,"tags":["cafe"],"rating":null,"reviews":0},{"id":143,"name":"いちきしまコーヒー","pref":"北海道","city":"札幌市","lat":43.0124641,"lng":141.372721,"tags":["cafe"],"rating":null,"reviews":0},{"id":144,"name":"かたちコーヒー","pref":"北海道","city":"札幌市","lat":43.0662038,"lng":141.3594473,"tags":["cafe"],"rating":null,"reviews":0},{"id":145,"name":"丸美珈琲店 丸井今井札幌本店大通館３階Cafe","pref":"北海道","city":"札幌市","lat":43.0603975,"lng":141.3550804,"tags":["cafe"],"rating":null,"reviews":0},{"id":146,"name":"BARISTART COFFEE","pref":"北海道","city":"札幌市","lat":43.0583246,"lng":141.3513244,"tags":["cafe"],"rating":null,"reviews":0},{"id":147,"name":"716COFFEE","pref":"北海道","city":"札幌市","lat":43.0938742,"lng":141.2938943,"tags":["cafe"],"rating":null,"reviews":0},{"id":148,"name":"COFFEE屋CO＋CO こーひーやこっこ","pref":"北海道","city":"室蘭市","lat":42.3554015,"lng":141.0274021,"tags":["cafe"],"rating":null,"reviews":0},{"id":149,"name":"伝七珈琲","pref":"北海道","city":"江別市","lat":43.0810817,"lng":141.5330404,"tags":["specialty"],"rating":null,"reviews":0},{"id":150,"name":"丸美珈琲店 maruyama class 円山公園店","pref":"北海道","city":"札幌市","lat":43.0549409,"lng":141.3178929,"tags":["specialty","cafe"],"rating":null,"reviews":0},{"id":151,"name":"quarter coffee","pref":"北海道","city":"函館市","lat":41.7624442,"lng":140.7136011,"tags":["cafe"],"rating":null,"reviews":0},{"id":152,"name":"Lilas Coffee","pref":"北海道","city":"札幌市","lat":43.0672253,"lng":141.3619166,"tags":["cafe"],"rating":null,"reviews":0},{"id":153,"name":"いつもコーヒー＆ロースターズ","pref":"北海道","city":"札幌市","lat":43.1075927,"lng":141.3828927,"tags":["specialty"],"rating":null,"reviews":0},{"id":154,"name":"トカプコーヒー","pref":"北海道","city":"河西郡","lat":42.6942083,"lng":143.1277876,"tags":["specialty"],"rating":null,"reviews":0},{"id":155,"name":"ONIYANMA COFFEE STAND","pref":"北海道","city":"札幌市","lat":43.0677971,"lng":141.3495906,"tags":["cafe"],"rating":null,"reviews":0},{"id":156,"name":"simauma珈琲焙煎","pref":"北海道","city":"札幌市","lat":43.1039452,"lng":141.3121242,"tags":["specialty","cafe"],"rating":null,"reviews":0},{"id":157,"name":"蔵人 - kuroudo 1974 - coffee roastery + stand","pref":"北海道","city":"札幌市","lat":43.0620329,"lng":141.3369428,"tags":["specialty","cafe"],"rating":null,"reviews":0},{"id":158,"name":"FORTUNA COFFEE","pref":"北海道","city":"恵庭市","lat":42.8808196,"lng":141.5794959,"tags":["cafe"],"rating":null,"reviews":0},{"id":159,"name":"珈琲問屋豆源 北10条店","pref":"北海道","city":"札幌市","lat":43.0746875,"lng":141.3611771,"tags":["cafe"],"rating":null,"reviews":0},{"id":160,"name":"Yukijiro Crown Cafe & Roasters","pref":"北海道","city":"函館市","lat":41.8289532,"lng":140.7475722,"tags":["specialty","cafe"],"rating":null,"reviews":0},{"id":161,"name":"しげのもり珈琲","pref":"北海道","city":"札幌市","lat":43.0844943,"lng":141.2935009,"tags":["specialty"],"rating":null,"reviews":0},{"id":162,"name":"丸美珈琲店 大通公園8丁目 F-60","pref":"北海道","city":"札幌市","lat":43.059004,"lng":141.3458303,"tags":["cafe"],"rating":null,"reviews":0},{"id":163,"name":"ブカヨ珈琲焙煎所","pref":"北海道","city":"岩内郡","lat":42.982487,"lng":140.5171396,"tags":["specialty","cafe"],"rating":null,"reviews":0},{"id":164,"name":"STANDARD COFFEE LAB. 札幌三越店","pref":"北海道","city":"札幌市","lat":43.0593514,"lng":141.3528697,"tags":["cafe"],"rating":null,"reviews":0},{"id":165,"name":"coffee&whisky kaiser","pref":"北海道","city":"白老郡","lat":42.5524697,"lng":141.3589898,"tags":["cafe"],"rating":null,"reviews":0},{"id":166,"name":"alitass coffee roaster","pref":"北海道","city":"札幌市","lat":43.0882746,"lng":141.3437744,"tags":["specialty","cafe"],"rating":null,"reviews":0},{"id":167,"name":"BEANS","pref":"北海道","city":"札幌市","lat":43.077067,"lng":141.2786942,"tags":["cafe"],"rating":null,"reviews":0},{"id":168,"name":"キャピタルコーヒー","pref":"北海道","city":"札幌市","lat":43.0601565,"lng":141.3546596,"tags":["cafe"],"rating":null,"reviews":0},{"id":169,"name":"絆珈琲店","pref":"北海道","city":"札幌市","lat":43.0485902,"lng":141.3417253,"tags":["cafe"],"rating":null,"reviews":0},{"id":170,"name":"ノースランドカフェたなか珈琲","pref":"北海道","city":"旭川市","lat":43.750016,"lng":142.3907912,"tags":["specialty","cafe"],"rating":null,"reviews":0},{"id":171,"name":"cafeゴリョウ(cafe Goryo)","pref":"北海道","city":"富良野市","lat":43.300546,"lng":142.3748016,"tags":["cafe"],"rating":null,"reviews":0},{"id":172,"name":"オールトーンズカフェ","pref":"北海道","city":"千歳市","lat":42.8264573,"lng":141.6470111,"tags":["cafe"],"rating":null,"reviews":0},{"id":173,"name":"昭平堂","pref":"北海道","city":"旭川市","lat":43.7546519,"lng":142.3788065,"tags":["cafe"],"rating":null,"reviews":0},{"id":174,"name":"㈲いわい珈琲 月寒店","pref":"北海道","city":"札幌市","lat":43.0321625,"lng":141.3966934,"tags":["cafe"],"rating":null,"reviews":0},{"id":175,"name":"りむ商会","pref":"北海道","city":"旭川市","lat":43.7703487,"lng":142.4448539,"tags":["cafe"],"rating":null,"reviews":0},{"id":176,"name":"octafuzz","pref":"北海道","city":"札幌市","lat":43.0271178,"lng":141.3706845,"tags":["cafe"],"rating":null,"reviews":0},{"id":177,"name":"吉田珈琲館","pref":"北海道","city":"旭川市","lat":43.7356592,"lng":142.388127,"tags":["cafe"],"rating":null,"reviews":0},{"id":178,"name":"旬の珈琲たく","pref":"北海道","city":"旭川市","lat":43.7895909,"lng":142.3261089,"tags":["cafe"],"rating":null,"reviews":0},{"id":179,"name":"美瑛珈琲ロースタリー","pref":"北海道","city":"上川郡","lat":43.5571448,"lng":142.4594747,"tags":["specialty","cafe"],"rating":null,"reviews":0},{"id":180,"name":"あさひ町珈琲","pref":"北海道","city":"上川郡","lat":43.594567,"lng":142.4679795,"tags":["cafe"],"rating":null,"reviews":0},{"id":181,"name":"Roaster Coaster - ロースターコースター 東川店","pref":"北海道","city":"上川郡","lat":43.6976543,"lng":142.5071013,"tags":["specialty","cafe"],"rating":null,"reviews":0},{"id":182,"name":"coffee stand plus","pref":"北海道","city":"旭川市","lat":43.7634794,"lng":142.3776809,"tags":["cafe"],"rating":null,"reviews":0},{"id":183,"name":"すぎやま珈琲","pref":"北海道","city":"空知郡","lat":43.4159043,"lng":142.4219191,"tags":["cafe"],"rating":null,"reviews":0},{"id":184,"name":"EARLE COFFE SHOP｜アールコーヒーショップ","pref":"北海道","city":"旭川市","lat":43.7652991,"lng":142.3976835,"tags":["cafe"],"rating":null,"reviews":0},{"id":185,"name":"珈琲の店 ライフ","pref":"北海道","city":"旭川市","lat":43.7365489,"lng":142.4126444,"tags":["cafe"],"rating":null,"reviews":0},{"id":186,"name":"宮田屋珈琲 豊平店","pref":"北海道","city":"札幌市","lat":43.0418832,"lng":141.3748955,"tags":["cafe"],"rating":null,"reviews":0},{"id":187,"name":"ゴーシュ","pref":"北海道","city":"上川郡","lat":43.5388131,"lng":142.4434751,"tags":["cafe"],"rating":null,"reviews":0},{"id":188,"name":"THE old CAFE","pref":"北海道","city":"旭川市","lat":43.7565014,"lng":142.4010947,"tags":["cafe"],"rating":null,"reviews":0},{"id":189,"name":"炭焙き珈房 るびあ","pref":"北海道","city":"札幌市","lat":43.1168072,"lng":141.3164848,"tags":["cafe"],"rating":null,"reviews":0},{"id":190,"name":"Topeni coffeestand (トペニ コーヒー スタンド)","pref":"北海道","city":"上川郡","lat":43.7088785,"lng":142.509575,"tags":["cafe"],"rating":null,"reviews":0},{"id":191,"name":"ローチロースター","pref":"北海道","city":"札幌市","lat":43.0599328,"lng":141.3564811,"tags":["specialty","cafe"],"rating":null,"reviews":0},{"id":192,"name":"Maayan Koffee","pref":"北海道","city":"函館市","lat":41.7604334,"lng":140.7205915,"tags":["cafe"],"rating":null,"reviews":0},{"id":193,"name":"ハリネズミ珈琲店","pref":"北海道","city":"札幌市","lat":43.0562709,"lng":141.346485,"tags":["cafe"],"rating":null,"reviews":0},{"id":194,"name":"PORTO COFFEE","pref":"北海道","city":"利尻郡","lat":45.2414895,"lng":141.2276438,"tags":["cafe"],"rating":null,"reviews":0},{"id":195,"name":"珈琲野郎","pref":"北海道","city":"帯広市","lat":42.9065573,"lng":143.1687526,"tags":["cafe"],"rating":null,"reviews":0},{"id":196,"name":"リトルフォートコーヒー 焙煎所（Little Fort Coffee Baisenjo）","pref":"北海道","city":"空知郡","lat":43.0788535,"lng":141.6748107,"tags":["specialty"],"rating":null,"reviews":0},{"id":197,"name":"Shirom cafe stand","pref":"北海道","city":"旭川市","lat":43.7649342,"lng":142.3580214,"tags":["cafe"],"rating":null,"reviews":0},{"id":198,"name":"moiwa531coffee","pref":"北海道","city":"札幌市","lat":43.0197892,"lng":141.2936548,"tags":["cafe"],"rating":null,"reviews":0},{"id":199,"name":"Rain coffee stand","pref":"北海道","city":"札幌市","lat":43.0575648,"lng":141.3531685,"tags":["cafe"],"rating":null,"reviews":0},{"id":200,"name":"カフェロン","pref":"北海道","city":"札幌市","lat":43.0332884,"lng":141.3364908,"tags":["cafe"],"rating":null,"reviews":0},{"id":201,"name":"KiosQ coffee rotary","pref":"北海道","city":"札幌市","lat":43.0681206,"lng":141.350636,"tags":["cafe"],"rating":null,"reviews":0},{"id":202,"name":"パフェ、珈琲、酒、佐藤本店・佐藤堂本店","pref":"北海道","city":"札幌市","lat":43.0591967,"lng":141.3553756,"tags":["cafe"],"rating":null,"reviews":0},{"id":203,"name":"Cafe Morita Coffee","pref":"北海道","city":"札幌市","lat":43.0826759,"lng":141.2903442,"tags":["cafe"],"rating":null,"reviews":0},{"id":204,"name":"VAIME COFFEE","pref":"北海道","city":"北見市","lat":43.7986322,"lng":143.8323695,"tags":["specialty","cafe"],"rating":null,"reviews":0},{"id":205,"name":"be.coffee stand...","pref":"北海道","city":"札幌市","lat":43.0385522,"lng":141.4150734,"tags":["cafe"],"rating":null,"reviews":0},{"id":206,"name":"Postman Oak","pref":"北海道","city":"札幌市","lat":43.043483,"lng":141.350652,"tags":["cafe"],"rating":null,"reviews":0},{"id":207,"name":"NEIGHBOUR Roast&Brew","pref":"北海道","city":"札幌市","lat":43.0659542,"lng":141.3552686,"tags":["cafe"],"rating":null,"reviews":0},{"id":208,"name":"0番地珈琲店","pref":"北海道","city":"札幌市","lat":43.0532414,"lng":141.3529028,"tags":["cafe"],"rating":null,"reviews":0},{"id":209,"name":"brew it","pref":"北海道","city":"札幌市","lat":43.056664,"lng":141.3541917,"tags":["cafe"],"rating":null,"reviews":0},{"id":210,"name":"大地の珈琲","pref":"北海道","city":"札幌市","lat":43.0836934,"lng":141.3399489,"tags":["cafe"],"rating":null,"reviews":0},{"id":211,"name":"MARK珈琲倶楽部","pref":"北海道","city":"札幌市","lat":43.0661281,"lng":141.3481747,"tags":["cafe"],"rating":null,"reviews":0},{"id":212,"name":"㈱アレフ タップルートコーヒーロースターズ","pref":"北海道","city":"札幌市","lat":43.0582338,"lng":141.3850059,"tags":["specialty"],"rating":null,"reviews":0},{"id":213,"name":"幾島珈琲研究所","pref":"北海道","city":"網走郡","lat":43.7440396,"lng":144.0553707,"tags":["cafe"],"rating":null,"reviews":0},{"id":214,"name":"shironi coffee roasters","pref":"北海道","city":"士別市","lat":44.1727551,"lng":142.39043,"tags":["specialty","cafe"],"rating":null,"reviews":0},{"id":215,"name":"すだのコーヒー(間借りカフェ)","pref":"北海道","city":"札幌市","lat":43.0895902,"lng":141.3398067,"tags":["cafe"],"rating":null,"reviews":0},{"id":216,"name":"時計のない喫茶店","pref":"北海道","city":"札幌市","lat":43.0804288,"lng":141.3457086,"tags":["cafe"],"rating":null,"reviews":0},{"id":217,"name":"嘉多山珈琲","pref":"北海道","city":"札幌市","lat":43.11053,"lng":141.3122345,"tags":["specialty"],"rating":null,"reviews":0},{"id":218,"name":"THAT COFFEE STAND","pref":"北海道","city":"札幌市","lat":43.0564262,"lng":141.3472097,"tags":["cafe"],"rating":null,"reviews":0},{"id":219,"name":"NORTH LIVE COFFEE （ノースライブコーヒー）","pref":"北海道","city":"江別市","lat":43.0926134,"lng":141.5278993,"tags":["cafe"],"rating":null,"reviews":0},{"id":220,"name":"コーヒーヤタイム","pref":"北海道","city":"札幌市","lat":43.0573399,"lng":141.3563821,"tags":["cafe"],"rating":null,"reviews":0},{"id":221,"name":"COFFEE&WINE STANDARD COFFEE LAB.","pref":"北海道","city":"札幌市","lat":43.0560207,"lng":141.3469065,"tags":["cafe"],"rating":null,"reviews":0},{"id":222,"name":"COFFEE STAND MORAN","pref":"北海道","city":"小樽市","lat":43.1965768,"lng":140.9975873,"tags":["cafe"],"rating":null,"reviews":0},{"id":223,"name":"FIKA CAFÉ Lagom","pref":"北海道","city":"札幌市","lat":43.0571046,"lng":141.3585936,"tags":["cafe"],"rating":null,"reviews":0},{"id":224,"name":"COFFEE STAND by shizuku","pref":"北海道","city":"余市郡","lat":43.1854875,"lng":140.7935533,"tags":["cafe"],"rating":null,"reviews":0},{"id":225,"name":"ヌヌースカフェ","pref":"北海道","city":"札幌市","lat":43.0269891,"lng":141.3705315,"tags":["cafe"],"rating":null,"reviews":0},{"id":226,"name":"ヨシノリコーヒー 旭川駅前店","pref":"北海道","city":"旭川市","lat":43.7648394,"lng":142.3583613,"tags":["cafe","online"],"rating":null,"reviews":0},{"id":227,"name":"寿珈琲","pref":"北海道","city":"札幌市","lat":43.0587342,"lng":141.3584248,"tags":["cafe"],"rating":null,"reviews":0},{"id":228,"name":"カフェ・ラ・バスティーユ","pref":"北海道","city":"札幌市","lat":43.0602667,"lng":141.3563993,"tags":["cafe"],"rating":null,"reviews":0},{"id":229,"name":"Rain miyanosawa&roastery","pref":"北海道","city":"札幌市","lat":43.088361,"lng":141.2775808,"tags":["specialty","cafe"],"rating":null,"reviews":0},{"id":230,"name":"THE RELAY (ザ リレー) - pass the coffee -","pref":"北海道","city":"札幌市","lat":43.0628548,"lng":141.3292305,"tags":["cafe"],"rating":null,"reviews":0},{"id":231,"name":"豆工房コーヒーロースト新琴似","pref":"北海道","city":"札幌市","lat":43.1065111,"lng":141.3272502,"tags":["specialty"],"rating":null,"reviews":0},{"id":232,"name":"LUCIDA COFFEE ROASTERS","pref":"北海道","city":"稚内市","lat":45.4124159,"lng":141.6743291,"tags":["specialty","cafe"],"rating":null,"reviews":0},{"id":233,"name":"PISUMA. coffee (ピスマコーヒー)","pref":"北海道","city":"札幌市","lat":43.015387,"lng":141.4707381,"tags":["cafe"],"rating":null,"reviews":0},{"id":234,"name":"ビーンズ西岡","pref":"北海道","city":"札幌市","lat":43.02047,"lng":141.384001,"tags":["cafe"],"rating":null,"reviews":0},{"id":235,"name":"Mingus Coffee","pref":"北海道","city":"","lat":43.0599301,"lng":141.3564851,"tags":["cafe"],"rating":null,"reviews":0},{"id":236,"name":"NIDO COFFEE ROASTERY","pref":"北海道","city":"旭川市","lat":43.7752855,"lng":142.3541083,"tags":["specialty","cafe"],"rating":null,"reviews":0},{"id":237,"name":"ONUKI COFFEE ROASTERY 焙煎所","pref":"北海道","city":"標津郡","lat":43.552462,"lng":144.976939,"tags":["specialty"],"rating":null,"reviews":0},{"id":238,"name":"and coffee","pref":"北海道","city":"札幌市","lat":43.0547865,"lng":141.3204379,"tags":["cafe"],"rating":null,"reviews":0},{"id":239,"name":"the 3rd Operation Coffee Company","pref":"北海道","city":"千歳市","lat":42.7826319,"lng":141.5929271,"tags":["specialty"],"rating":null,"reviews":0},{"id":240,"name":"YETI STANDING","pref":"北海道","city":"札幌市","lat":43.1276989,"lng":141.2305608,"tags":["cafe"],"rating":null,"reviews":0},{"id":241,"name":"Blend coffee living","pref":"北海道","city":"札幌市","lat":43.0582357,"lng":141.3395568,"tags":["cafe"],"rating":null,"reviews":0},{"id":242,"name":"kaneko coffee beans kamifurano","pref":"北海道","city":"空知郡","lat":43.4359553,"lng":142.4641339,"tags":["cafe"],"rating":null,"reviews":0},{"id":243,"name":"珈琲工房ビーンズ 大谷地店","pref":"北海道","city":"札幌市","lat":43.023472,"lng":141.456395,"tags":["specialty"],"rating":null,"reviews":0},{"id":244,"name":"焙煎たにがわ","pref":"北海道","city":"札幌市","lat":43.08722,"lng":141.2814933,"tags":["specialty"],"rating":null,"reviews":0},{"id":245,"name":"ひの珈琲店","pref":"北海道","city":"札幌市","lat":43.0455583,"lng":141.4166154,"tags":["cafe"],"rating":null,"reviews":0},{"id":246,"name":"CAFE工房MISUZU","pref":"北海道","city":"札幌市","lat":43.0558818,"lng":141.3533282,"tags":["cafe"],"rating":null,"reviews":0},{"id":247,"name":"TOYA CAFE 珈琲焙煎所","pref":"北海道","city":"有珠郡","lat":42.5594043,"lng":140.8530356,"tags":["specialty","cafe"],"rating":null,"reviews":0},{"id":248,"name":"森彦","pref":"北海道","city":"札幌市","lat":43.0533077,"lng":141.3186089,"tags":["cafe"],"rating":null,"reviews":0},{"id":249,"name":"ジュピター さっぽろ東急百貨店","pref":"北海道","city":"札幌市","lat":43.0662479,"lng":141.3525606,"tags":["cafe"],"rating":null,"reviews":0},{"id":250,"name":"㈱サクライ","pref":"北海道","city":"室蘭市","lat":42.350974,"lng":141.020586,"tags":["specialty"],"rating":null,"reviews":0},{"id":251,"name":"ねこのめ珈琲","pref":"北海道","city":"札幌市","lat":43.0843001,"lng":141.278821,"tags":["specialty"],"rating":null,"reviews":0},{"id":252,"name":"杉屋珈琲","pref":"北海道","city":"札幌市","lat":43.0633614,"lng":141.2762575,"tags":["specialty"],"rating":null,"reviews":0},{"id":253,"name":"コーヒー専門店 LOOK","pref":"北海道","city":"帯広市","lat":42.8909019,"lng":143.1875419,"tags":["specialty"],"rating":null,"reviews":0},{"id":254,"name":"ハーベスト","pref":"北海道","city":"札幌市","lat":43.0814973,"lng":141.2789501,"tags":["specialty"],"rating":null,"reviews":0},{"id":255,"name":"可否茶館 大通店","pref":"北海道","city":"札幌市","lat":43.0604677,"lng":141.3564029,"tags":["cafe"],"rating":null,"reviews":0},{"id":256,"name":"珈房 サッポロ珈琲館 本店","pref":"北海道","city":"札幌市","lat":43.083363,"lng":141.305995,"tags":["cafe"],"rating":null,"reviews":0},{"id":257,"name":"心留珈琲","pref":"北海道","city":"札幌市","lat":42.9902719,"lng":141.4763258,"tags":["specialty"],"rating":null,"reviews":0},{"id":258,"name":"アグリコーヒー(鶴巻アグリファーム 珈琲焙煎所）","pref":"北海道","city":"石狩郡","lat":43.2309097,"lng":141.5140608,"tags":["specialty"],"rating":null,"reviews":0},{"id":259,"name":"珈琲豆直売所","pref":"北海道","city":"札幌市","lat":43.1274418,"lng":141.2588601,"tags":["cafe","online"],"rating":null,"reviews":0},{"id":260,"name":"NorthGarageCoffee古真舎","pref":"北海道","city":"札幌市","lat":43.0062799,"lng":141.382304,"tags":["specialty","cafe"],"rating":null,"reviews":0},{"id":261,"name":"自家焙煎 珈琲埜音","pref":"北海道","city":"帯広市","lat":42.8890175,"lng":143.1806585,"tags":["specialty"],"rating":null,"reviews":0},{"id":262,"name":"焙煎屋 えにわ珈琲☕️","pref":"北海道","city":"恵庭市","lat":42.8925614,"lng":141.5700733,"tags":["specialty"],"rating":null,"reviews":0},{"id":263,"name":"豆工房 小林珈琲店","pref":"北海道","city":"江別市","lat":43.0960161,"lng":141.5314514,"tags":["cafe"],"rating":null,"reviews":0},{"id":264,"name":"札幌三日月","pref":"北海道","city":"札幌市","lat":42.9589285,"lng":141.3437835,"tags":["specialty"],"rating":null,"reviews":0},{"id":265,"name":"YOSSY BASE (ヨッシーベース)","pref":"北海道","city":"札幌市","lat":42.9965319,"lng":141.312685,"tags":["specialty","cafe"],"rating":null,"reviews":0},{"id":266,"name":"Acoustic Cafe","pref":"北海道","city":"札幌市","lat":43.1084522,"lng":141.2715606,"tags":["cafe"],"rating":null,"reviews":0},{"id":267,"name":"ウェカラパ","pref":"北海道","city":"滝川市","lat":43.5860601,"lng":141.9325596,"tags":["specialty"],"rating":null,"reviews":0},{"id":268,"name":"マルセイコーヒー","pref":"北海道","city":"札幌市","lat":43.0593934,"lng":141.3568397,"tags":["cafe"],"rating":null,"reviews":0},{"id":269,"name":"㈲珈々豆屋","pref":"北海道","city":"旭川市","lat":43.8034901,"lng":142.3890815,"tags":["cafe"],"rating":null,"reviews":0},{"id":270,"name":"珈琲問屋豆源 東苗穂本店","pref":"北海道","city":"札幌市","lat":43.0783093,"lng":141.400899,"tags":["cafe"],"rating":null,"reviews":0},{"id":271,"name":"JINNO COFFEE","pref":"北海道","city":"札幌市","lat":43.1186926,"lng":141.3287318,"tags":["cafe"],"rating":null,"reviews":0},{"id":272,"name":"東京堂コーヒー店","pref":"北海道","city":"夕張郡","lat":43.0589075,"lng":141.7828267,"tags":["cafe"],"rating":null,"reviews":0},{"id":273,"name":"ジュピター 新さっぽろ店","pref":"北海道","city":"札幌市","lat":43.037729,"lng":141.472385,"tags":["cafe"],"rating":null,"reviews":0},{"id":274,"name":"宮の森珈琲 苫小牧店","pref":"北海道","city":"苫小牧市","lat":42.6542216,"lng":141.6349432,"tags":["cafe"],"rating":null,"reviews":0},{"id":275,"name":"珈々豆屋 イオン店","pref":"北海道","city":"旭川市","lat":43.7937794,"lng":142.3264295,"tags":["cafe"],"rating":null,"reviews":0},{"id":276,"name":"カフェボーネ","pref":"北海道","city":"札幌市","lat":43.0658305,"lng":141.3058403,"tags":["cafe"],"rating":null,"reviews":0},{"id":277,"name":"谷口農場直売店&CAFE まっかなトマト","pref":"北海道","city":"旭川市","lat":43.7216419,"lng":142.4339736,"tags":["cafe","online"],"rating":null,"reviews":0},{"id":278,"name":"ハト コーヒー","pref":"北海道","city":"札幌市","lat":43.093864,"lng":141.3439938,"tags":["cafe"],"rating":null,"reviews":0},{"id":279,"name":"徳光珈琲 石狩本店","pref":"北海道","city":"石狩市","lat":43.1519569,"lng":141.3016664,"tags":["cafe"],"rating":null,"reviews":0},{"id":280,"name":"北海道ケリーケー珈琲販売","pref":"北海道","city":"帯広市","lat":42.8890089,"lng":143.1806353,"tags":["specialty"],"rating":null,"reviews":0},{"id":281,"name":"東亜珈琲館 本店","pref":"北海道","city":"千歳市","lat":42.8235874,"lng":141.649187,"tags":["cafe"],"rating":null,"reviews":0},{"id":282,"name":"iki coffee","pref":"北海道","city":"札幌市","lat":43.0907588,"lng":141.3738243,"tags":["cafe"],"rating":null,"reviews":0},{"id":283,"name":"Y'sコーヒー西神楽焙煎工場直売店","pref":"北海道","city":"旭川市","lat":43.6851495,"lng":142.3887917,"tags":["specialty","online"],"rating":null,"reviews":0},{"id":284,"name":"ビーンズショップセレクト","pref":"北海道","city":"札幌市","lat":43.082185,"lng":141.342087,"tags":["cafe"],"rating":null,"reviews":0},{"id":285,"name":"Y'sコーヒー","pref":"北海道","city":"旭川市","lat":43.7699958,"lng":142.386776,"tags":["cafe"],"rating":null,"reviews":0},{"id":286,"name":"コーヒー&ビーンズショップ カフェブレス","pref":"北海道","city":"帯広市","lat":42.9165423,"lng":143.2121973,"tags":["cafe"],"rating":null,"reviews":0},{"id":287,"name":"珈琲屋林 日吉店","pref":"北海道","city":"苫小牧市","lat":42.6220843,"lng":141.5595788,"tags":["cafe"],"rating":null,"reviews":0},{"id":288,"name":"菊地珈琲 ブルーマウンテン館","pref":"北海道","city":"札幌市","lat":43.083946,"lng":141.2620017,"tags":["cafe"],"rating":null,"reviews":0},{"id":289,"name":"㈲おかめや","pref":"北海道","city":"札幌市","lat":43.1082633,"lng":141.2916101,"tags":["cafe"],"rating":null,"reviews":0},{"id":290,"name":"BARISTART COFFEE FURANO","pref":"北海道","city":"富良野市","lat":43.3471116,"lng":142.3881707,"tags":["cafe"],"rating":null,"reviews":0},{"id":291,"name":"antenna coffee (アンテナコーヒー)","pref":"北海道","city":"岩見沢市","lat":43.1242055,"lng":141.7480777,"tags":["cafe"],"rating":null,"reviews":0},{"id":292,"name":"㈱豆太","pref":"北海道","city":"札幌市","lat":43.1097444,"lng":141.2507614,"tags":["cafe"],"rating":null,"reviews":0},{"id":293,"name":"マメッコ","pref":"北海道","city":"江別市","lat":43.1068678,"lng":141.5556769,"tags":["cafe"],"rating":null,"reviews":0},{"id":294,"name":"徳光珈琲銭函店","pref":"北海道","city":"小樽市","lat":43.1435417,"lng":141.1603388,"tags":["cafe"],"rating":null,"reviews":0},{"id":295,"name":"㈱きゃろっと 焙煎工房","pref":"北海道","city":"恵庭市","lat":42.8841683,"lng":141.6067359,"tags":["specialty"],"rating":null,"reviews":0},{"id":296,"name":"珈琲豆屋ほっとたいむ","pref":"北海道","city":"江別市","lat":43.1076361,"lng":141.5266025,"tags":["cafe"],"rating":null,"reviews":0},{"id":297,"name":"豆全商店 コーヒー豆専門店","pref":"北海道","city":"旭川市","lat":43.7907205,"lng":142.3301356,"tags":["specialty"],"rating":null,"reviews":0},{"id":298,"name":"土と木と","pref":"北海道","city":"紋別郡","lat":44.0361343,"lng":143.497836,"tags":["specialty"],"rating":null,"reviews":0},{"id":299,"name":"珈琲座間屋","pref":"北海道","city":"足寄郡","lat":43.2450642,"lng":143.5465818,"tags":["cafe"],"rating":null,"reviews":0},{"id":300,"name":"coffee stand container","pref":"北海道","city":"旭川市","lat":43.7719244,"lng":142.3628638,"tags":["cafe"],"rating":null,"reviews":0},{"id":301,"name":"菊池恒琲","pref":"北海道","city":"札幌市","lat":43.0566717,"lng":141.3553998,"tags":["cafe"],"rating":null,"reviews":0},{"id":302,"name":"珈琲焙煎工房 函館美鈴","pref":"北海道","city":"旭川市","lat":43.7431846,"lng":142.4094562,"tags":["specialty","cafe"],"rating":null,"reviews":0},{"id":303,"name":"9。coffee","pref":"北海道","city":"札幌市","lat":43.0563889,"lng":141.3494444,"tags":["cafe"],"rating":null,"reviews":0},{"id":304,"name":"ippo ippo","pref":"北海道","city":"札幌市","lat":43.070508,"lng":141.320246,"tags":["cafe"],"rating":null,"reviews":0},{"id":305,"name":"coffee&chocolate Marley 東店","pref":"北海道","city":"札幌市","lat":43.0554225,"lng":141.3551815,"tags":["cafe"],"rating":null,"reviews":0},{"id":306,"name":"喫茶ハシビロコウ","pref":"北海道","city":"小樽市","lat":43.1795083,"lng":140.9917555,"tags":["cafe"],"rating":null,"reviews":0},{"id":307,"name":"ACCコーヒー","pref":"北海道","city":"釧路市","lat":42.9730787,"lng":144.3833676,"tags":["cafe"],"rating":null,"reviews":0},{"id":308,"name":"宮の森珈琲 大通公園店","pref":"北海道","city":"札幌市","lat":43.0602709,"lng":141.3543443,"tags":["cafe"],"rating":null,"reviews":0},{"id":309,"name":"珈琲豆屋 行雲流水","pref":"北海道","city":"江別市","lat":43.0921182,"lng":141.5326152,"tags":["specialty"],"rating":null,"reviews":0},{"id":310,"name":"えちおぴ屋","pref":"北海道","city":"苫小牧市","lat":42.6212551,"lng":141.5460716,"tags":["cafe"],"rating":null,"reviews":0},{"id":311,"name":"CAFF工房MISUZU×食品倉庫 室蘭店","pref":"北海道","city":"室蘭市","lat":42.3494022,"lng":141.0162992,"tags":["cafe"],"rating":null,"reviews":0},{"id":312,"name":"ひらがなのもりひこ","pref":"北海道","city":"札幌市","lat":43.0603151,"lng":141.355755,"tags":["cafe"],"rating":null,"reviews":0},{"id":313,"name":"珈琲館・琥珀の館","pref":"北海道","city":"小樽市","lat":43.196922,"lng":140.994584,"tags":["cafe"],"rating":null,"reviews":0},{"id":314,"name":"㈱宮田屋珈琲 美しが丘店","pref":"北海道","city":"札幌市","lat":42.98807,"lng":141.447545,"tags":["cafe"],"rating":null,"reviews":0},{"id":315,"name":"珈琲工房 美鈴‪✕‬業務食品倉庫","pref":"北海道","city":"札幌市","lat":43.051468,"lng":141.411962,"tags":["cafe"],"rating":null,"reviews":0},{"id":316,"name":"えな珈琲","pref":"北海道","city":"旭川市","lat":43.7936342,"lng":142.390706,"tags":["specialty","cafe"],"rating":null,"reviews":0},{"id":317,"name":"丸美珈琲 本社","pref":"北海道","city":"札幌市","lat":43.0399757,"lng":141.3531428,"tags":["cafe"],"rating":null,"reviews":0},{"id":318,"name":"喫茶とギャラリー なみなみ","pref":"北海道","city":"札幌市","lat":43.0515538,"lng":141.3757554,"tags":["cafe"],"rating":null,"reviews":0},{"id":319,"name":"Cafe Tocoche(カフェ トコシエ)","pref":"北海道","city":"札幌市","lat":43.0504398,"lng":141.3751277,"tags":["cafe"],"rating":null,"reviews":0},{"id":320,"name":"コーヒースタンド シエスタ","pref":"北海道","city":"勇払郡","lat":42.8818955,"lng":141.8137782,"tags":["cafe"],"rating":null,"reviews":0},{"id":321,"name":"サッポロ珈琲館 八軒ビーンズショップ","pref":"北海道","city":"札幌市","lat":43.0830102,"lng":141.3055956,"tags":["cafe"],"rating":null,"reviews":0},{"id":322,"name":"KOFUKU BASE(幸福村)","pref":"北海道","city":"帯広市","lat":42.7453985,"lng":143.1618113,"tags":["cafe"],"rating":null,"reviews":0},{"id":323,"name":"八戸珈琲館 自家焙煎の店河原木店","pref":"青森県","city":"八戸市","lat":40.5337314,"lng":141.4774887,"tags":["specialty","cafe"],"rating":null,"reviews":0},{"id":324,"name":"珈琲 時代屋","pref":"青森県","city":"弘前市","lat":40.6033862,"lng":140.4697464,"tags":["cafe"],"rating":null,"reviews":0},{"id":325,"name":"自家焙煎珈琲 cogemame coffee roaster","pref":"青森県","city":"三沢市","lat":40.6680839,"lng":141.3505047,"tags":["specialty","cafe"],"rating":null,"reviews":0},{"id":326,"name":"コーヒー通り21","pref":"青森県","city":"むつ市","lat":41.286662,"lng":141.1966096,"tags":["cafe"],"rating":null,"reviews":0},{"id":327,"name":"ブルーマウンテン","pref":"青森県","city":"むつ市","lat":41.29431,"lng":141.212321,"tags":["cafe"],"rating":null,"reviews":0},{"id":328,"name":"ちえの実","pref":"青森県","city":"青森市","lat":40.8059824,"lng":140.7693523,"tags":["cafe"],"rating":null,"reviews":0},{"id":329,"name":"自家焙煎コーヒー豆の店 パーフェクトコーヒー青森","pref":"青森県","city":"青森市","lat":40.8060098,"lng":140.7540037,"tags":["specialty"],"rating":null,"reviews":0},{"id":330,"name":"艮珈琲店","pref":"青森県","city":"むつ市","lat":41.3994196,"lng":141.154797,"tags":["cafe"],"rating":null,"reviews":0},{"id":331,"name":"喫茶 私とワタシ","pref":"青森県","city":"黒石市","lat":40.6432867,"lng":140.5941213,"tags":["cafe"],"rating":null,"reviews":0},{"id":332,"name":"猿賀山珈琲焙煎所","pref":"青森県","city":"平川市","lat":40.6175372,"lng":140.5665232,"tags":["specialty"],"rating":null,"reviews":0},{"id":333,"name":"Ripen(ライプン)","pref":"青森県","city":"弘前市","lat":40.6011364,"lng":140.4710339,"tags":["cafe"],"rating":null,"reviews":0},{"id":334,"name":"新寺町珈琲","pref":"青森県","city":"弘前市","lat":40.5957115,"lng":140.4615337,"tags":["cafe"],"rating":null,"reviews":0},{"id":335,"name":"6かく珈琲","pref":"青森県","city":"八戸市","lat":40.5229662,"lng":141.5213335,"tags":["cafe"],"rating":null,"reviews":0},{"id":336,"name":"うつわ珈琲豆や豆人","pref":"青森県","city":"弘前市","lat":40.6048087,"lng":140.5116731,"tags":["specialty","cafe"],"rating":null,"reviews":0},{"id":337,"name":"iro coffee（イロコーヒー）","pref":"青森県","city":"弘前市","lat":40.6075276,"lng":140.4799375,"tags":["cafe"],"rating":null,"reviews":0},{"id":338,"name":"NOPPO to COFFEE","pref":"青森県","city":"青森市","lat":40.7813178,"lng":140.7809045,"tags":["cafe"],"rating":null,"reviews":0},{"id":339,"name":"ARIEDA COFFEE CAFE design","pref":"青森県","city":"八戸市","lat":40.5159611,"lng":141.4269947,"tags":["cafe"],"rating":null,"reviews":0},{"id":340,"name":"喫茶柊","pref":"青森県","city":"三戸郡","lat":40.5114628,"lng":141.3266235,"tags":["cafe"],"rating":null,"reviews":0},{"id":341,"name":"喫茶･軽食 オージ","pref":"青森県","city":"八戸市","lat":40.5869934,"lng":141.4640352,"tags":["cafe"],"rating":null,"reviews":0},{"id":342,"name":"浦町珈琲店","pref":"青森県","city":"青森市","lat":40.8195001,"lng":140.7541602,"tags":["cafe"],"rating":null,"reviews":0},{"id":343,"name":"COFFEEMAN good","pref":"青森県","city":"青森市","lat":40.8255017,"lng":140.7378107,"tags":["cafe"],"rating":null,"reviews":0},{"id":344,"name":"珈琲いしむら","pref":"青森県","city":"北津軽郡","lat":40.7584656,"lng":140.4330547,"tags":["cafe"],"rating":null,"reviews":0},{"id":345,"name":"野口珈琲店","pref":"青森県","city":"東津軽郡","lat":41.040441,"lng":140.6437044,"tags":["specialty","cafe"],"rating":null,"reviews":0},{"id":346,"name":"創カフェ","pref":"青森県","city":"青森市","lat":40.7554891,"lng":140.5864119,"tags":["cafe"],"rating":null,"reviews":0},{"id":347,"name":"CAFÉ 水とコーヒー 新青森駅店","pref":"青森県","city":"青森市","lat":40.8285378,"lng":140.6936092,"tags":["cafe"],"rating":null,"reviews":0},{"id":348,"name":"自家焙煎珈琲販売 加山珈琲販売","pref":"青森県","city":"八戸市","lat":40.5195052,"lng":141.4888068,"tags":["specialty"],"rating":null,"reviews":0},{"id":349,"name":"成田専蔵珈琲店(岩木山神社前)","pref":"青森県","city":"弘前市","lat":40.6194078,"lng":140.3428785,"tags":["cafe"],"rating":null,"reviews":0},{"id":350,"name":"amor coffee","pref":"青森県","city":"上北郡","lat":40.6932295,"lng":141.1579164,"tags":["cafe"],"rating":null,"reviews":0},{"id":351,"name":"自家焙煎 有枝珈琲","pref":"青森県","city":"八戸市","lat":40.4986233,"lng":141.5073875,"tags":["specialty"],"rating":null,"reviews":0},{"id":352,"name":"のだ珈琲","pref":"青森県","city":"八戸市","lat":40.5039789,"lng":141.4940958,"tags":["cafe"],"rating":null,"reviews":0},{"id":353,"name":"Cafe Happy Tree","pref":"青森県","city":"十和田市","lat":40.6157863,"lng":141.2128509,"tags":["cafe"],"rating":null,"reviews":0},{"id":354,"name":"Craft & Cafe RAITO(クラフト&カフェ･ライト)","pref":"青森県","city":"南津軽郡","lat":40.5210696,"lng":140.5671042,"tags":["cafe"],"rating":null,"reviews":0},{"id":355,"name":"MIA COFFEE ROASTERS","pref":"青森県","city":"青森市","lat":40.8262398,"lng":140.7378526,"tags":["specialty","cafe"],"rating":null,"reviews":0},{"id":356,"name":"珈琲舎","pref":"青森県","city":"青森市","lat":40.8246193,"lng":140.735954,"tags":["cafe"],"rating":null,"reviews":0},{"id":357,"name":"COFFEE ROASTER +KAL | 自家焙煎コーヒー タスカル","pref":"青森県","city":"むつ市","lat":41.2758624,"lng":141.2080935,"tags":["specialty"],"rating":null,"reviews":0},{"id":358,"name":"COFFEE COLORS 問屋町店","pref":"青森県","city":"青森市","lat":40.7870012,"lng":140.7509807,"tags":["cafe"],"rating":null,"reviews":0},{"id":359,"name":"珈琲詩人","pref":"青森県","city":"五所川原市","lat":40.8095596,"lng":140.445301,"tags":["cafe"],"rating":null,"reviews":0},{"id":360,"name":"お菓子と自家焙煎コーヒー ソカロ","pref":"青森県","city":"三戸郡","lat":40.4613218,"lng":141.3579638,"tags":["specialty","cafe"],"rating":null,"reviews":0},{"id":361,"name":"COFFEE COLORS 青森新町八甲通り店","pref":"青森県","city":"青森市","lat":40.825777,"lng":140.739896,"tags":["cafe"],"rating":null,"reviews":0},{"id":362,"name":"カフェ･デ･ジターヌ 古川店","pref":"青森県","city":"青森市","lat":40.8265935,"lng":140.7345793,"tags":["cafe"],"rating":null,"reviews":0},{"id":363,"name":"アンバーコーヒー小中野本店","pref":"青森県","city":"八戸市","lat":40.5202165,"lng":141.5158201,"tags":["cafe"],"rating":null,"reviews":0},{"id":364,"name":"珈琲屋 七星","pref":"青森県","city":"八戸市","lat":40.516235,"lng":141.5434429,"tags":["cafe"],"rating":null,"reviews":0},{"id":365,"name":"珈琲専科 壹番館","pref":"青森県","city":"弘前市","lat":40.6031708,"lng":140.4708809,"tags":["cafe"],"rating":null,"reviews":0},{"id":366,"name":"自家焙煎 むつの珈琲店","pref":"青森県","city":"むつ市","lat":41.2811885,"lng":141.2052828,"tags":["specialty","cafe"],"rating":null,"reviews":0},{"id":367,"name":"ハローコーヒー","pref":"青森県","city":"弘前市","lat":40.6015016,"lng":140.4784453,"tags":["cafe"],"rating":null,"reviews":0},{"id":368,"name":"珈琲の香","pref":"青森県","city":"八戸市","lat":40.5280616,"lng":141.5612497,"tags":["specialty","cafe"],"rating":null,"reviews":0},{"id":369,"name":"BIWANO52 Coffee Factory(ビワノコーヒー)","pref":"青森県","city":"上北郡","lat":40.8516598,"lng":141.1096053,"tags":["cafe"],"rating":null,"reviews":0},{"id":370,"name":"Street Smart Coffee","pref":"青森県","city":"十和田市","lat":40.6177538,"lng":141.217959,"tags":["cafe"],"rating":null,"reviews":0},{"id":371,"name":"成田専蔵珈琲店 城東店","pref":"青森県","city":"弘前市","lat":40.6064083,"lng":140.4934969,"tags":["cafe"],"rating":null,"reviews":0},{"id":372,"name":"花みずき","pref":"青森県","city":"弘前市","lat":40.5942059,"lng":140.4961285,"tags":["cafe"],"rating":null,"reviews":0},{"id":373,"name":"弘大(ひろだい)カフェ 成田専蔵珈琲店","pref":"青森県","city":"弘前市","lat":40.5904668,"lng":140.4737231,"tags":["cafe"],"rating":null,"reviews":0},{"id":374,"name":"喫茶マロン","pref":"青森県","city":"青森市","lat":40.827135,"lng":140.741518,"tags":["cafe"],"rating":null,"reviews":0},{"id":375,"name":"青い森珈琲焙煎所","pref":"青森県","city":"青森市","lat":40.8255562,"lng":140.7755968,"tags":["specialty","cafe"],"rating":null,"reviews":0},{"id":376,"name":"和田珈琲","pref":"青森県","city":"青森市","lat":40.8166603,"lng":140.7634172,"tags":["cafe"],"rating":null,"reviews":0},{"id":377,"name":"The Lobby Umineco","pref":"青森県","city":"青森市","lat":40.8257253,"lng":140.7371066,"tags":["cafe"],"rating":null,"reviews":0},{"id":378,"name":"白神焙煎舎","pref":"青森県","city":"中津軽郡","lat":40.5779924,"lng":140.3006802,"tags":["specialty","cafe"],"rating":null,"reviews":0},{"id":379,"name":"S.ローステリア","pref":"青森県","city":"八戸市","lat":40.5080793,"lng":141.470951,"tags":["cafe"],"rating":null,"reviews":0},{"id":380,"name":"COFFEE EN","pref":"青森県","city":"","lat":40.8232843,"lng":140.7334132,"tags":["cafe"],"rating":null,"reviews":0},{"id":381,"name":"CAFÉ 水とコーヒー 鰺ヶ沢店","pref":"青森県","city":"西津軽郡","lat":40.7794333,"lng":140.2103462,"tags":["cafe"],"rating":null,"reviews":0},{"id":382,"name":"ウエダ珈琲店","pref":"青森県","city":"八戸市","lat":40.5127353,"lng":141.5072061,"tags":["cafe"],"rating":null,"reviews":0},{"id":383,"name":"時の音 ESPRESSO","pref":"青森県","city":"弘前市","lat":40.6062461,"lng":140.4775278,"tags":["cafe"],"rating":null,"reviews":0},{"id":384,"name":"美鈴コーヒー 青森営業所","pref":"青森県","city":"青森市","lat":40.8002735,"lng":140.7534516,"tags":["cafe"],"rating":null,"reviews":0},{"id":385,"name":"あんてな青森","pref":"青森県","city":"青森市","lat":40.8061127,"lng":140.7523898,"tags":["cafe"],"rating":null,"reviews":0},{"id":386,"name":"自家焙煎珈琲工房 茶居花","pref":"青森県","city":"八戸市","lat":40.4906143,"lng":141.5444032,"tags":["specialty"],"rating":null,"reviews":0},{"id":387,"name":"abcoffee","pref":"青森県","city":"黒石市","lat":40.6455732,"lng":140.5963727,"tags":["cafe"],"rating":null,"reviews":0},{"id":388,"name":"おおはし珈琲","pref":"青森県","city":"青森市","lat":40.824788,"lng":140.737182,"tags":["cafe"],"rating":null,"reviews":0},{"id":389,"name":"5m COFFEE ファイブエムコーヒー","pref":"青森県","city":"青森市","lat":40.8253892,"lng":140.7372929,"tags":["cafe"],"rating":null,"reviews":0},{"id":390,"name":"自遊木民族珈琲","pref":"青森県","city":"上北郡","lat":40.8725518,"lng":141.0981292,"tags":["cafe"],"rating":null,"reviews":0},{"id":391,"name":"PINO Coffee Roaster(ピノコーヒーロースター)","pref":"青森県","city":"南津軽郡","lat":40.6577898,"lng":140.5628373,"tags":["specialty","cafe"],"rating":null,"reviews":0},{"id":392,"name":"珈琲 虎ノ穴","pref":"青森県","city":"青森市","lat":40.8142143,"lng":140.7724334,"tags":["cafe"],"rating":null,"reviews":0},{"id":393,"name":"可否屋 葡瑠満","pref":"青森県","city":"弘前市","lat":40.606435,"lng":140.468327,"tags":["cafe"],"rating":null,"reviews":0},{"id":394,"name":"珈琲茶館 麦藁帽子","pref":"青森県","city":"青森市","lat":40.8255392,"lng":140.7388781,"tags":["cafe"],"rating":null,"reviews":0},{"id":395,"name":"Coffee＆Roasters Dolcetto(ドルチェット)","pref":"青森県","city":"弘前市","lat":40.5895301,"lng":140.4741294,"tags":["specialty"],"rating":null,"reviews":0},{"id":396,"name":"カフェ･デ･ジターヌ 篠田店","pref":"青森県","city":"青森市","lat":40.8307538,"lng":140.7250684,"tags":["cafe"],"rating":null,"reviews":0},{"id":397,"name":"lil coffeestop (リルコーヒーストップ)","pref":"青森県","city":"青森市","lat":40.8325213,"lng":140.8081304,"tags":["cafe"],"rating":null,"reviews":0},{"id":398,"name":"Cafe＆呑み処 えん屋","pref":"青森県","city":"十和田市","lat":40.6167126,"lng":141.2154266,"tags":["cafe"],"rating":null,"reviews":0},{"id":399,"name":"little cafe PORTA","pref":"青森県","city":"八戸市","lat":40.5646096,"lng":141.4435845,"tags":["cafe"],"rating":null,"reviews":0},{"id":400,"name":"アウル∞珈琲","pref":"青森県","city":"つがる市","lat":40.8125115,"lng":140.3835334,"tags":["cafe"],"rating":null,"reviews":0},{"id":401,"name":"黒井鳥珈琲","pref":"秋田県","city":"北秋田市","lat":40.229987,"lng":140.368508,"tags":["cafe"],"rating":null,"reviews":0},{"id":402,"name":"自家焙煎工房 cafe stand Oli-Oli","pref":"岩手県","city":"二戸市","lat":40.2988647,"lng":141.3018424,"tags":["specialty","cafe"],"rating":null,"reviews":0},{"id":403,"name":"赤い屋根の喫茶店「駅舎」","pref":"青森県","city":"五所川原市","lat":40.9123017,"lng":140.4511318,"tags":["cafe"],"rating":null,"reviews":0},{"id":404,"name":"Enjoy とわだこ 〜湖の上のカフェ〜ワカサギ釣りドーム船〜","pref":"秋田県","city":"鹿角郡","lat":40.4773889,"lng":140.8273688,"tags":["cafe"],"rating":null,"reviews":0},{"id":405,"name":"Unbreakable（アンブレイカブル）","pref":"青森県","city":"十和田市","lat":40.5917989,"lng":141.2379669,"tags":["cafe"],"rating":null,"reviews":0},{"id":406,"name":"カフェGRIN","pref":"青森県","city":"十和田市","lat":40.5744061,"lng":141.2646354,"tags":["cafe"],"rating":null,"reviews":0},{"id":407,"name":"ボコラボ","pref":"青森県","city":"黒石市","lat":40.646323,"lng":140.5941758,"tags":["cafe"],"rating":null,"reviews":0},{"id":408,"name":"スターバックス コーヒー 青森中央店","pref":"青森県","city":"青森市","lat":40.7971991,"lng":140.7394436,"tags":["cafe"],"rating":null,"reviews":0},{"id":409,"name":"Rui's Cafe","pref":"青森県","city":"八戸市","lat":40.4800463,"lng":141.4519744,"tags":["cafe"],"rating":null,"reviews":0},{"id":410,"name":"KEKU CAFE(ケクー･カフェ)","pref":"青森県","city":"三戸郡","lat":40.4671752,"lng":141.3837909,"tags":["cafe"],"rating":null,"reviews":0},{"id":411,"name":"浪漫須貯古齢糖","pref":"青森県","city":"弘前市","lat":40.6026781,"lng":140.4768864,"tags":["cafe"],"rating":null,"reviews":0},{"id":412,"name":"加賀コーヒー店","pref":"秋田県","city":"大館市","lat":40.2743129,"lng":140.5595135,"tags":["cafe"],"rating":null,"reviews":0},{"id":413,"name":"白金珈琲(プラチナコーヒー)ロースター","pref":"青森県","city":"平川市","lat":40.6179711,"lng":140.5188191,"tags":["specialty"],"rating":null,"reviews":0},{"id":414,"name":"カフェ ド MoDern","pref":"青森県","city":"五所川原市","lat":40.8114583,"lng":140.4619917,"tags":["cafe"],"rating":null,"reviews":0},{"id":415,"name":"白神炭工房 炭蔵","pref":"青森県","city":"弘前市","lat":40.606312,"lng":140.447542,"tags":["cafe"],"rating":null,"reviews":0},{"id":416,"name":"カネイリ喫茶","pref":"青森県","city":"八戸市","lat":40.5105629,"lng":141.4911177,"tags":["cafe"],"rating":null,"reviews":0},{"id":417,"name":"土手の珈琲屋 万茶ン","pref":"青森県","city":"弘前市","lat":40.6020267,"lng":140.4717818,"tags":["cafe"],"rating":null,"reviews":0},{"id":418,"name":"Matsuzaki Coffee Roastery","pref":"青森県","city":"上北郡","lat":40.5988635,"lng":141.4303396,"tags":["specialty","cafe"],"rating":null,"reviews":0},{"id":419,"name":"yeoyucoffee","pref":"青森県","city":"三沢市","lat":40.6769649,"lng":141.3651554,"tags":["cafe"],"rating":null,"reviews":0},{"id":420,"name":"nero","pref":"青森県","city":"青森市","lat":40.8451208,"lng":140.8339404,"tags":["cafe"],"rating":null,"reviews":0},{"id":421,"name":"eisa COFFEE ROASTER","pref":"青森県","city":"十和田市","lat":40.6201853,"lng":141.2223612,"tags":["specialty","cafe"],"rating":null,"reviews":0},{"id":422,"name":"SOMETIMES COFFEE","pref":"青森県","city":"青森市","lat":40.8058024,"lng":140.7500959,"tags":["cafe"],"rating":null,"reviews":0},{"id":423,"name":"LIFE Coffee Roaster","pref":"青森県","city":"","lat":40.6846682,"lng":141.3652554,"tags":["specialty","cafe"],"rating":null,"reviews":0},{"id":424,"name":"Farm 36(ファーム・ミチル) さくら野弘前店","pref":"青森県","city":"弘前市","lat":40.6069005,"lng":140.4958832,"tags":["cafe"],"rating":null,"reviews":0},{"id":425,"name":"YADORIGI COFFEE ROASTERS（ヤドリギコーヒーロースターズ）","pref":"青森県","city":"弘前市","lat":40.5967037,"lng":140.4758578,"tags":["specialty","cafe"],"rating":null,"reviews":0},{"id":426,"name":"コーヒー青空","pref":"青森県","city":"上北郡","lat":40.8692341,"lng":141.1369105,"tags":["cafe"],"rating":null,"reviews":0},{"id":427,"name":"白神山美水館","pref":"青森県","city":"西津軽郡","lat":40.775265,"lng":140.184561,"tags":["cafe"],"rating":null,"reviews":0},{"id":428,"name":"ドトールコーヒーショップ 青森新町通り店","pref":"青森県","city":"青森市","lat":40.8270968,"lng":140.7374352,"tags":["cafe"],"rating":null,"reviews":0},{"id":429,"name":"KEKU:COFFEE STAND","pref":"青森県","city":"八戸市","lat":40.5160602,"lng":141.4304731,"tags":["cafe"],"rating":null,"reviews":0},{"id":430,"name":"白神ワイナリー&白神生はちみつ shop Befavo","pref":"青森県","city":"中津軽郡","lat":40.5777377,"lng":140.3006043,"tags":["cafe"],"rating":null,"reviews":0},{"id":431,"name":"ポールショップカフェ青森支店","pref":"青森県","city":"青森市","lat":40.8182208,"lng":140.7629696,"tags":["cafe"],"rating":null,"reviews":0},{"id":432,"name":"FILLS CAFE","pref":"青森県","city":"弘前市","lat":40.5995471,"lng":140.4635621,"tags":["cafe"],"rating":null,"reviews":0},{"id":433,"name":"和田珈琲＋","pref":"青森県","city":"十和田市","lat":40.6235903,"lng":141.2056203,"tags":["cafe"],"rating":null,"reviews":0},{"id":434,"name":"shop&cafe鳥曇（株式会社とり）","pref":"青森県","city":"十和田市","lat":40.5785413,"lng":140.995311,"tags":["cafe"],"rating":null,"reviews":0},{"id":435,"name":"BUNACO CAFÉ(ブナコ･カフェ)","pref":"青森県","city":"中津軽郡","lat":40.5755496,"lng":140.2958921,"tags":["cafe"],"rating":null,"reviews":0},{"id":436,"name":"青森県地場セレクト","pref":"青森県","city":"青森市","lat":40.8298306,"lng":140.7408242,"tags":["cafe"],"rating":null,"reviews":0},{"id":437,"name":"カルディコーヒーファーム五所川原エルム店","pref":"青森県","city":"五所川原市","lat":40.7980896,"lng":140.4539441,"tags":["cafe"],"rating":null,"reviews":0},{"id":438,"name":"キャピタルコーヒー さくら野青森店","pref":"青森県","city":"青森市","lat":40.826133,"lng":140.7392701,"tags":["cafe"],"rating":null,"reviews":0},{"id":439,"name":"アルプス 中央店","pref":"青森県","city":"青森市","lat":40.8239726,"lng":140.7557536,"tags":["cafe"],"rating":null,"reviews":0},{"id":440,"name":"下北文化珈琲店","pref":"青森県","city":"むつ市","lat":41.2956738,"lng":141.197913,"tags":["cafe"],"rating":null,"reviews":0},{"id":441,"name":"つばめ喫茶室","pref":"青森県","city":"弘前市","lat":40.5877346,"lng":140.4791029,"tags":["cafe"],"rating":null,"reviews":0},{"id":442,"name":"雪風珈琲","pref":"青森県","city":"青森市","lat":40.822896,"lng":140.727702,"tags":["cafe"],"rating":null,"reviews":0},{"id":443,"name":"ジュピター 弘前アプリーズ店","pref":"青森県","city":"弘前市","lat":40.5991226,"lng":140.4850153,"tags":["cafe"],"rating":null,"reviews":0},{"id":444,"name":"みな実珈琲店","pref":"青森県","city":"八戸市","lat":40.5299439,"lng":141.4810976,"tags":["cafe"],"rating":null,"reviews":0},{"id":445,"name":"けや木","pref":"青森県","city":"弘前市","lat":40.574496,"lng":140.449994,"tags":["cafe"],"rating":null,"reviews":0},{"id":446,"name":"ジュピター 青森店","pref":"青森県","city":"青森市","lat":40.8277117,"lng":140.7341014,"tags":["cafe"],"rating":null,"reviews":0},{"id":447,"name":"cafe oink","pref":"青森県","city":"青森市","lat":40.8199752,"lng":140.7590736,"tags":["cafe"],"rating":null,"reviews":0},{"id":448,"name":"ハンドクラップ","pref":"青森県","city":"青森市","lat":40.8239634,"lng":140.7558417,"tags":["cafe"],"rating":null,"reviews":0},{"id":449,"name":"カブセンター西青森店","pref":"青森県","city":"青森市","lat":40.8309084,"lng":140.7024926,"tags":["cafe"],"rating":null,"reviews":0},{"id":450,"name":"CAFE SHOP FIKA","pref":"青森県","city":"青森市","lat":40.813168,"lng":140.7458754,"tags":["cafe"],"rating":null,"reviews":0},{"id":451,"name":"おさないりんご店","pref":"青森県","city":"青森市","lat":40.8276077,"lng":140.7350953,"tags":["cafe"],"rating":null,"reviews":0},{"id":452,"name":"ジークフリート 戸山店","pref":"青森県","city":"青森市","lat":40.8027314,"lng":140.798209,"tags":["cafe"],"rating":null,"reviews":0},{"id":453,"name":"湧水亭","pref":"青森県","city":"上北郡","lat":41.0281861,"lng":141.246232,"tags":["cafe"],"rating":null,"reviews":0},{"id":454,"name":"スターバックス コーヒー 青森 ＆LOVINA店","pref":"青森県","city":"青森市","lat":40.8284637,"lng":140.7346355,"tags":["cafe"],"rating":null,"reviews":0},{"id":455,"name":"菓子処フレンド由乃 自由ケ丘店","pref":"青森県","city":"青森市","lat":40.8143312,"lng":140.7955363,"tags":["cafe"],"rating":null,"reviews":0},{"id":456,"name":"カレーとコーヒー king","pref":"青森県","city":"青森市","lat":40.8143691,"lng":140.7132625,"tags":["cafe"],"rating":null,"reviews":0},{"id":457,"name":"㈱渋川製菓","pref":"青森県","city":"黒石市","lat":40.6415711,"lng":140.600294,"tags":["cafe"],"rating":null,"reviews":0},{"id":458,"name":"コノハト茶葉店","pref":"青森県","city":"青森市","lat":40.817455,"lng":140.7633498,"tags":["cafe"],"rating":null,"reviews":0},{"id":459,"name":"カブセンター神田店","pref":"青森県","city":"弘前市","lat":40.6263156,"lng":140.4865,"tags":["cafe"],"rating":null,"reviews":0},{"id":460,"name":"ジョージのおやつ","pref":"青森県","city":"弘前市","lat":40.5989376,"lng":140.4817813,"tags":["cafe"],"rating":null,"reviews":0},{"id":461,"name":"SKIP EGG","pref":"青森県","city":"青森市","lat":40.8303471,"lng":140.7351462,"tags":["cafe"],"rating":null,"reviews":0},{"id":462,"name":"銘茶の玉雲堂 さくら野弘前店","pref":"青森県","city":"弘前市","lat":40.6066521,"lng":140.4959579,"tags":["cafe"],"rating":null,"reviews":0},{"id":463,"name":"しかないせんべい 本店","pref":"青森県","city":"弘前市","lat":40.5967681,"lng":140.4655941,"tags":["cafe"],"rating":null,"reviews":0},{"id":464,"name":"クラフト＆和カフェ匠館","pref":"青森県","city":"弘前市","lat":40.6038167,"lng":140.4610902,"tags":["cafe"],"rating":null,"reviews":0},{"id":465,"name":"よもぎた物産館 「マルシェよもぎた」","pref":"青森県","city":"東津軽郡","lat":40.9961596,"lng":140.6524125,"tags":["cafe"],"rating":null,"reviews":0},{"id":466,"name":"餅屋 英太郎","pref":"青森県","city":"青森市","lat":40.8166512,"lng":140.7634865,"tags":["cafe"],"rating":null,"reviews":0},{"id":467,"name":"銘茶の玉雲堂 本店","pref":"青森県","city":"弘前市","lat":40.613674,"lng":140.4808809,"tags":["cafe"],"rating":null,"reviews":0},{"id":468,"name":"ボンみすず","pref":"青森県","city":"青森市","lat":40.8334357,"lng":140.7995522,"tags":["cafe"],"rating":null,"reviews":0},{"id":469,"name":"甘精堂本店","pref":"青森県","city":"青森市","lat":40.8266125,"lng":140.7387874,"tags":["cafe"],"rating":null,"reviews":0},{"id":470,"name":"浅草焼 浪岡アップルヒル店","pref":"青森県","city":"青森市","lat":40.7177764,"lng":140.5795062,"tags":["cafe"],"rating":null,"reviews":0},{"id":471,"name":"ウィーン菓子 シュトラウス","pref":"青森県","city":"青森市","lat":40.8265093,"lng":140.7387131,"tags":["cafe"],"rating":null,"reviews":0},{"id":472,"name":"ゆぱんき","pref":"青森県","city":"弘前市","lat":40.5970416,"lng":140.4679976,"tags":["cafe"],"rating":null,"reviews":0},{"id":473,"name":"ヒナタ珈琲","pref":"青森県","city":"青森市","lat":40.80745,"lng":140.7445515,"tags":["cafe"],"rating":null,"reviews":0},{"id":474,"name":"JAファーマーズ・マーケット かだぁ～れ","pref":"青森県","city":"十和田市","lat":40.6260068,"lng":141.2501716,"tags":["cafe"],"rating":null,"reviews":0},{"id":475,"name":"モホドリ蒸溜研究所","pref":"青森県","city":"五所川原市","lat":40.8101746,"lng":140.4432823,"tags":["cafe"],"rating":null,"reviews":0},{"id":476,"name":"津軽カフェ物語〜小泊のカレー屋さん〜","pref":"青森県","city":"北津軽郡","lat":41.1308208,"lng":140.304874,"tags":["cafe"],"rating":null,"reviews":0},{"id":477,"name":"コミュニティカフェ でる･そーれ","pref":"青森県","city":"五所川原市","lat":40.8095799,"lng":140.4476969,"tags":["cafe"],"rating":null,"reviews":0},{"id":478,"name":"軽食喫茶ぶな林","pref":"青森県","city":"青森市","lat":40.6505463,"lng":140.8506468,"tags":["cafe"],"rating":null,"reviews":0},{"id":479,"name":"ロット","pref":"青森県","city":"弘前市","lat":40.6046239,"lng":140.4800128,"tags":["cafe"],"rating":null,"reviews":0},{"id":480,"name":"金木観光物産館 産直メロス","pref":"青森県","city":"五所川原市","lat":40.9024395,"lng":140.4548594,"tags":["cafe"],"rating":null,"reviews":0},{"id":481,"name":"cafe DemiDemi (でみでみ)","pref":"青森県","city":"弘前市","lat":40.5964932,"lng":140.4644646,"tags":["cafe"],"rating":null,"reviews":0},{"id":482,"name":"THE CAMPERS NEST","pref":"青森県","city":"弘前市","lat":40.6034275,"lng":140.4719156,"tags":["cafe"],"rating":null,"reviews":0},{"id":483,"name":"イタリアンダイニング NATURE CAFE","pref":"青森県","city":"青森市","lat":40.8227499,"lng":140.7542943,"tags":["cafe"],"rating":null,"reviews":0},{"id":484,"name":"ジェラート･ナチュレ","pref":"青森県","city":"青森市","lat":40.8266286,"lng":140.736186,"tags":["cafe"],"rating":null,"reviews":0},{"id":485,"name":"雑貨と手仕事の店momo’s","pref":"青森県","city":"むつ市","lat":41.293427,"lng":141.2093142,"tags":["cafe"],"rating":null,"reviews":0},{"id":486,"name":"circle こみせ","pref":"青森県","city":"黒石市","lat":40.6441874,"lng":140.5962319,"tags":["cafe"],"rating":null,"reviews":0},{"id":487,"name":"coffee HYGGE montblanc1955","pref":"青森県","city":"むつ市","lat":41.2932346,"lng":141.1804486,"tags":["cafe"],"rating":null,"reviews":0},{"id":488,"name":"レストラン&カフェ ひぐち","pref":"青森県","city":"青森市","lat":40.7825,"lng":140.785,"tags":["cafe"],"rating":null,"reviews":0},{"id":489,"name":"こりっくベーカリー","pref":"青森県","city":"青森市","lat":40.8196212,"lng":140.7458204,"tags":["cafe"],"rating":null,"reviews":0},{"id":490,"name":"ひょうたん茶屋","pref":"青森県","city":"青森市","lat":40.7057577,"lng":140.8223047,"tags":["cafe"],"rating":null,"reviews":0},{"id":491,"name":"ミルマウンテン","pref":"青森県","city":"十和田市","lat":40.6115951,"lng":141.2162628,"tags":["cafe"],"rating":null,"reviews":0},{"id":492,"name":"ジャバラマ(自家焙煎珈琲)","pref":"岩手県","city":"花巻市","lat":39.4492431,"lng":141.002879,"tags":["specialty","cafe"],"rating":null,"reviews":0},{"id":493,"name":"星の森珈琲店","pref":"岩手県","city":"花巻市","lat":39.393633,"lng":141.108077,"tags":["cafe"],"rating":null,"reviews":0},{"id":494,"name":"coffeeworkshop KICK","pref":"岩手県","city":"北上市","lat":39.3345891,"lng":141.0437037,"tags":["cafe"],"rating":null,"reviews":0},{"id":495,"name":"FishmanCoffee Roastery店","pref":"岩手県","city":"花巻市","lat":39.3859223,"lng":141.1158028,"tags":["specialty","cafe"],"rating":null,"reviews":0},{"id":496,"name":"珈琲薺","pref":"岩手県","city":"岩手郡","lat":39.9582884,"lng":141.2102597,"tags":["cafe"],"rating":null,"reviews":0},{"id":497,"name":"珈琲自家焙煎の店 猫リラ","pref":"岩手県","city":"花巻市","lat":39.3704668,"lng":141.058906,"tags":["specialty","cafe"],"rating":null,"reviews":0},{"id":498,"name":"珈琲と酒 米山","pref":"岩手県","city":"盛岡市","lat":39.7024023,"lng":141.1519386,"tags":["cafe"],"rating":null,"reviews":0},{"id":499,"name":"茜屋","pref":"岩手県","city":"北上市","lat":39.287528,"lng":141.113474,"tags":["cafe"],"rating":null,"reviews":0},{"id":500,"name":"梅屋珈灯","pref":"岩手県","city":"盛岡市","lat":39.7046016,"lng":141.158034,"tags":["cafe"],"rating":null,"reviews":0},{"id":501,"name":"La Cosecha","pref":"岩手県","city":"盛岡市","lat":39.697579,"lng":141.1353297,"tags":["cafe"],"rating":null,"reviews":0},{"id":502,"name":"fulalafu","pref":"岩手県","city":"盛岡市","lat":39.6912497,"lng":141.1565442,"tags":["specialty"],"rating":null,"reviews":0},{"id":503,"name":"珈琲 樂","pref":"岩手県","city":"一関市","lat":38.919246,"lng":141.3333857,"tags":["cafe"],"rating":null,"reviews":0},{"id":504,"name":"㈲キャメル珈琲店","pref":"岩手県","city":"盛岡市","lat":39.7106276,"lng":141.1674666,"tags":["specialty","cafe"],"rating":null,"reviews":0},{"id":505,"name":"ねるどりっぷ珈琲 機屋","pref":"岩手県","city":"盛岡市","lat":39.706555,"lng":141.1466372,"tags":["cafe"],"rating":null,"reviews":0},{"id":506,"name":"ティーハウス リーベ","pref":"岩手県","city":"盛岡市","lat":39.7021057,"lng":141.1519228,"tags":["cafe"],"rating":null,"reviews":0},{"id":507,"name":"珈琲自家焙煎店 はな","pref":"岩手県","city":"胆沢郡","lat":39.2076384,"lng":141.1094426,"tags":["specialty","cafe"],"rating":null,"reviews":0},{"id":508,"name":"us coffee","pref":"岩手県","city":"気仙郡","lat":39.1422736,"lng":141.5795025,"tags":["cafe"],"rating":null,"reviews":0},{"id":509,"name":"KWANS COFFEE ROASTERY","pref":"秋田県","city":"横手市","lat":39.3442918,"lng":140.5375033,"tags":["specialty","cafe"],"rating":null,"reviews":0},{"id":510,"name":"地球屋","pref":"岩手県","city":"奥州市","lat":39.1399176,"lng":141.1434755,"tags":["specialty"],"rating":null,"reviews":0},{"id":511,"name":"珈琲焙煎ポラン","pref":"岩手県","city":"盛岡市","lat":39.6986729,"lng":141.1571933,"tags":["specialty","cafe"],"rating":null,"reviews":0},{"id":512,"name":"ムヨカ珈琲ロースタリー","pref":"宮城県","city":"栗原市","lat":38.8306969,"lng":140.9900685,"tags":["specialty"],"rating":null,"reviews":0},{"id":513,"name":"慶熟コーヒー","pref":"秋田県","city":"横手市","lat":39.2972985,"lng":140.5501415,"tags":["specialty"],"rating":null,"reviews":0},{"id":514,"name":"熊谷珈琲店","pref":"岩手県","city":"陸前高田市","lat":39.0165996,"lng":141.6276382,"tags":["cafe"],"rating":null,"reviews":0},{"id":515,"name":"パァク","pref":"岩手県","city":"盛岡市","lat":39.7019943,"lng":141.1521711,"tags":["cafe"],"rating":null,"reviews":0},{"id":516,"name":"羅針盤","pref":"岩手県","city":"盛岡市","lat":39.7004091,"lng":141.1561451,"tags":["cafe"],"rating":null,"reviews":0},{"id":517,"name":"さくら通りの珈琲屋さんNomuNomu（ノムノム）","pref":"岩手県","city":"北上市","lat":39.29791,"lng":141.112027,"tags":["cafe"],"rating":null,"reviews":0},{"id":518,"name":"やぎさん珈琲","pref":"岩手県","city":"盛岡市","lat":39.6785093,"lng":141.1462631,"tags":["cafe"],"rating":null,"reviews":0},{"id":519,"name":"自家焙煎珈琲 チャフ","pref":"岩手県","city":"一関市","lat":38.9342283,"lng":141.1722991,"tags":["specialty","cafe"],"rating":null,"reviews":0},{"id":520,"name":"焙煎豆や tan","pref":"岩手県","city":"岩手郡","lat":39.9731747,"lng":141.2229576,"tags":["specialty","cafe"],"rating":null,"reviews":0},{"id":521,"name":"Bear Valley Coffee","pref":"岩手県","city":"奥州市","lat":39.1172645,"lng":141.1602007,"tags":["specialty"],"rating":null,"reviews":0},{"id":522,"name":"397COFFEE ROASTERS","pref":"岩手県","city":"奥州市","lat":39.1257758,"lng":140.990104,"tags":["specialty","cafe"],"rating":null,"reviews":0},{"id":523,"name":"茶廊 車門","pref":"岩手県","city":"盛岡市","lat":39.6989499,"lng":141.1553936,"tags":["cafe"],"rating":null,"reviews":0},{"id":524,"name":"豆工房タカハシ","pref":"岩手県","city":"花巻市","lat":39.4005266,"lng":141.1029909,"tags":["specialty"],"rating":null,"reviews":0},{"id":525,"name":"AURORA COFFEE ROASTERS","pref":"岩手県","city":"岩手郡","lat":39.693187,"lng":140.9389299,"tags":["specialty","cafe"],"rating":null,"reviews":0},{"id":526,"name":"アンゴラコーヒー","pref":"岩手県","city":"盛岡市","lat":39.7070204,"lng":141.1489834,"tags":["specialty"],"rating":null,"reviews":0},{"id":527,"name":"CAFE LAube水沢店","pref":"岩手県","city":"奥州市","lat":39.1417695,"lng":141.1501871,"tags":["cafe"],"rating":null,"reviews":0},{"id":528,"name":"4番目の珈琲店","pref":"岩手県","city":"盛岡市","lat":39.703308,"lng":141.1424839,"tags":["cafe"],"rating":null,"reviews":0},{"id":529,"name":"珈琲BAL","pref":"岩手県","city":"盛岡市","lat":39.705081,"lng":141.1551521,"tags":["cafe"],"rating":null,"reviews":0},{"id":530,"name":"CHIBACOFFEE","pref":"岩手県","city":"胆沢郡","lat":39.2212786,"lng":141.1111767,"tags":["specialty"],"rating":null,"reviews":0},{"id":531,"name":"ジャズと喫茶Franny","pref":"岩手県","city":"花巻市","lat":39.3860633,"lng":141.1008592,"tags":["cafe"],"rating":null,"reviews":0},{"id":532,"name":"KUBEL'S COFFEE","pref":"岩手県","city":"盛岡市","lat":39.7019924,"lng":141.1436899,"tags":["cafe"],"rating":null,"reviews":0},{"id":533,"name":"CAFE LAube(カフェローブ) 1号店","pref":"岩手県","city":"北上市","lat":39.3447921,"lng":141.1073263,"tags":["cafe"],"rating":null,"reviews":0},{"id":534,"name":"自家焙煎珈房","pref":"岩手県","city":"岩手郡","lat":39.6939763,"lng":140.9727691,"tags":["specialty","cafe"],"rating":null,"reviews":0},{"id":535,"name":"戸塚珈琲店","pref":"岩手県","city":"盛岡市","lat":39.704278,"lng":141.1529797,"tags":["cafe"],"rating":null,"reviews":0},{"id":536,"name":"ito cafe","pref":"岩手県","city":"北上市","lat":39.2807481,"lng":141.1157687,"tags":["cafe"],"rating":null,"reviews":0},{"id":537,"name":"ナガハマコーヒー 盛岡駅西口店","pref":"岩手県","city":"盛岡市","lat":39.6999411,"lng":141.1324714,"tags":["cafe"],"rating":null,"reviews":0},{"id":538,"name":"豆と喫茶waltz","pref":"岩手県","city":"盛岡市","lat":39.7007044,"lng":141.1563263,"tags":["cafe"],"rating":null,"reviews":0},{"id":539,"name":"Cafe lounge vin gogh","pref":"岩手県","city":"一関市","lat":38.8002616,"lng":141.2037262,"tags":["cafe"],"rating":null,"reviews":0},{"id":540,"name":"コーヒーの店 響","pref":"岩手県","city":"盛岡市","lat":39.7328182,"lng":141.1473179,"tags":["cafe"],"rating":null,"reviews":0},{"id":541,"name":"MISSING PIECE","pref":"岩手県","city":"花巻市","lat":39.3770782,"lng":141.1177251,"tags":["cafe"],"rating":null,"reviews":0},{"id":542,"name":"高原の珈琲工房 NELCAFE","pref":"岩手県","city":"八幡平市","lat":40.0062295,"lng":140.9747563,"tags":["cafe"],"rating":null,"reviews":0},{"id":543,"name":"焙煎喫茶 chanoma coffee","pref":"岩手県","city":"盛岡市","lat":39.6491184,"lng":141.1445,"tags":["specialty","cafe"],"rating":null,"reviews":0},{"id":544,"name":"coffee","pref":"岩手県","city":"岩手郡","lat":39.9689983,"lng":141.2217222,"tags":["specialty","cafe"],"rating":null,"reviews":0},{"id":545,"name":"いなだ珈琲舎","pref":"岩手県","city":"盛岡市","lat":39.6962605,"lng":141.1576711,"tags":["cafe"],"rating":null,"reviews":0},{"id":546,"name":"日本珈琲社","pref":"岩手県","city":"奥州市","lat":39.1381543,"lng":141.1391135,"tags":["specialty","cafe"],"rating":null,"reviews":0},{"id":547,"name":"珈琲豆･器 梅小花","pref":"岩手県","city":"奥州市","lat":39.1458453,"lng":141.144027,"tags":["specialty"],"rating":null,"reviews":0},{"id":548,"name":"丘の上の珈琲 ぽつんと","pref":"岩手県","city":"奥州市","lat":39.1195711,"lng":141.0514233,"tags":["cafe"],"rating":null,"reviews":0},{"id":549,"name":"高木珈琲 盛岡MOSSビル店","pref":"岩手県","city":"盛岡市","lat":39.7024806,"lng":141.1444991,"tags":["cafe"],"rating":null,"reviews":0},{"id":550,"name":"SCRCafe（千香珈琲焙煎舎）","pref":"岩手県","city":"岩手郡","lat":39.9665983,"lng":141.2167077,"tags":["specialty","cafe"],"rating":null,"reviews":0},{"id":551,"name":"NANAMARUNI COFFEE","pref":"岩手県","city":"久慈市","lat":40.1906122,"lng":141.7664241,"tags":["cafe"],"rating":null,"reviews":0},{"id":552,"name":"INTERZ","pref":"岩手県","city":"北上市","lat":39.2857628,"lng":141.1079291,"tags":["cafe"],"rating":null,"reviews":0},{"id":553,"name":"金井コーヒー工房","pref":"岩手県","city":"岩手郡","lat":39.9911774,"lng":141.2303317,"tags":["cafe"],"rating":null,"reviews":0},{"id":554,"name":"珈琲･うつわ-わたなべ","pref":"岩手県","city":"盛岡市","lat":39.7068166,"lng":141.1417063,"tags":["specialty"],"rating":null,"reviews":0},{"id":555,"name":"WAYS COFFEE STAND","pref":"岩手県","city":"盛岡市","lat":39.7018239,"lng":141.1522396,"tags":["cafe"],"rating":null,"reviews":0},{"id":556,"name":"クラムボン","pref":"岩手県","city":"盛岡市","lat":39.703781,"lng":141.156656,"tags":["cafe"],"rating":null,"reviews":0},{"id":557,"name":"自家焙煎珈琲屋松屋","pref":"岩手県","city":"下閉伊郡","lat":39.9251658,"lng":141.8996847,"tags":["specialty","cafe"],"rating":null,"reviews":0},{"id":558,"name":"そこにある珈琲","pref":"岩手県","city":"盛岡市","lat":39.6984568,"lng":141.1565022,"tags":["cafe"],"rating":null,"reviews":0},{"id":559,"name":"自家焙煎珈琲店 よしの珈琲","pref":"岩手県","city":"大船渡市","lat":39.0852025,"lng":141.7099916,"tags":["specialty","cafe"],"rating":null,"reviews":0},{"id":560,"name":"栗谷珈琲焙煎所","pref":"秋田県","city":"横手市","lat":39.2009225,"lng":140.5450173,"tags":["specialty","cafe"],"rating":null,"reviews":0},{"id":561,"name":"コーヒー焙煎 風光舎","pref":"岩手県","city":"岩手郡","lat":39.7611028,"lng":140.9708028,"tags":["specialty","cafe"],"rating":null,"reviews":0},{"id":562,"name":"自家焙煎珈琲 六月の鹿","pref":"岩手県","city":"盛岡市","lat":39.70218,"lng":141.1518357,"tags":["specialty"],"rating":null,"reviews":0},{"id":563,"name":"CAFE LAube 5号店","pref":"岩手県","city":"北上市","lat":39.2923175,"lng":141.1095304,"tags":["cafe"],"rating":null,"reviews":0},{"id":564,"name":"コーヒーストア蛮珈","pref":"岩手県","city":"滝沢市","lat":39.7320878,"lng":141.1012935,"tags":["cafe"],"rating":null,"reviews":0},{"id":565,"name":"Le pont(ルポン)","pref":"岩手県","city":"盛岡市","lat":39.6993026,"lng":141.1581722,"tags":["cafe"],"rating":null,"reviews":0},{"id":566,"name":"111coffee","pref":"岩手県","city":"和賀郡","lat":39.3320227,"lng":140.7867706,"tags":["cafe"],"rating":null,"reviews":0},{"id":567,"name":"Nagasawa COFFEE","pref":"岩手県","city":"盛岡市","lat":39.7135026,"lng":141.1436529,"tags":["cafe"],"rating":null,"reviews":0},{"id":568,"name":"キンクマコーヒー 無人直売店（KINKUMA COFFEE）","pref":"岩手県","city":"紫波郡","lat":39.6062367,"lng":141.1517785,"tags":["specialty","online"],"rating":null,"reviews":0},{"id":569,"name":"KITA COFFEE STAND(UNI)","pref":"岩手県","city":"盛岡市","lat":39.7081477,"lng":141.1370228,"tags":["cafe"],"rating":null,"reviews":0},{"id":570,"name":"コーヒーロースト イエローミル","pref":"岩手県","city":"盛岡市","lat":39.6974378,"lng":141.1506961,"tags":["cafe"],"rating":null,"reviews":0},{"id":571,"name":"ジャズカフェ サルーン h.イマジン","pref":"岩手県","city":"陸前高田市","lat":39.018735,"lng":141.630433,"tags":["cafe"],"rating":null,"reviews":0},{"id":572,"name":"漸進社","pref":"岩手県","city":"盛岡市","lat":39.702231,"lng":141.1564531,"tags":["specialty","cafe"],"rating":null,"reviews":0},{"id":573,"name":"マメヒコ","pref":"岩手県","city":"遠野市","lat":39.3366671,"lng":141.5269365,"tags":["cafe"],"rating":null,"reviews":0},{"id":574,"name":"4832 The SUGAR","pref":"岩手県","city":"紫波郡","lat":39.5543818,"lng":141.1580569,"tags":["cafe"],"rating":null,"reviews":0},{"id":575,"name":"Cota Cafe(コタカフェ)｜しゅうブルーベリー園","pref":"岩手県","city":"北上市","lat":39.265333,"lng":141.076855,"tags":["cafe"],"rating":null,"reviews":0},{"id":576,"name":"シエスタ","pref":"岩手県","city":"久慈市","lat":40.1877959,"lng":141.7702934,"tags":["cafe"],"rating":null,"reviews":0},{"id":577,"name":"フォレスト","pref":"岩手県","city":"花巻市","lat":39.4085035,"lng":141.1012426,"tags":["cafe"],"rating":null,"reviews":0},{"id":578,"name":"ポンコツ珈琲食堂","pref":"岩手県","city":"盛岡市","lat":39.7002327,"lng":141.1490039,"tags":["cafe"],"rating":null,"reviews":0},{"id":579,"name":"Mizusaki Note","pref":"岩手県","city":"奥州市","lat":39.2299213,"lng":141.1167798,"tags":["cafe"],"rating":null,"reviews":0},{"id":580,"name":"羽沢製菓","pref":"岩手県","city":"八幡平市","lat":40.102301,"lng":141.048724,"tags":["cafe"],"rating":null,"reviews":0},{"id":581,"name":"珈琲豆専門 彩豆","pref":"秋田県","city":"由利本荘市","lat":39.3892902,"lng":140.0646341,"tags":["cafe"],"rating":null,"reviews":0},{"id":582,"name":"茶房あれい","pref":"岩手県","city":"花巻市","lat":39.386482,"lng":141.1160945,"tags":["cafe"],"rating":null,"reviews":0},{"id":583,"name":"喫茶ふかくさ","pref":"岩手県","city":"盛岡市","lat":39.7011963,"lng":141.1550865,"tags":["cafe"],"rating":null,"reviews":0},{"id":584,"name":"雑貨＆カフェ マライカ BAZAAR 盛岡店","pref":"岩手県","city":"盛岡市","lat":39.6607768,"lng":141.1615987,"tags":["cafe"],"rating":null,"reviews":0},{"id":585,"name":"自家焙煎珈琲･手作りケーキ じゅがーる","pref":"秋田県","city":"大仙市","lat":39.4513291,"lng":140.480961,"tags":["specialty","cafe"],"rating":null,"reviews":0},{"id":586,"name":"草木舎 自家焙煎珈琲店","pref":"山形県","city":"酒田市","lat":38.8583903,"lng":139.9562563,"tags":["specialty","cafe"],"rating":null,"reviews":0},{"id":587,"name":"薫","pref":"秋田県","city":"由利本荘市","lat":39.3865369,"lng":140.0564629,"tags":["cafe"],"rating":null,"reviews":0},{"id":588,"name":"喫茶ポプラ","pref":"岩手県","city":"奥州市","lat":39.1863295,"lng":141.18368,"tags":["cafe"],"rating":null,"reviews":0},{"id":589,"name":"阿弖流為珈琲","pref":"岩手県","city":"盛岡市","lat":39.7171748,"lng":141.1689889,"tags":["cafe"],"rating":null,"reviews":0},{"id":590,"name":"treflod（トレフロード）","pref":"岩手県","city":"盛岡市","lat":39.7030707,"lng":141.1409396,"tags":["cafe"],"rating":null,"reviews":0},{"id":591,"name":"結カフェ","pref":"岩手県","city":"二戸郡","lat":40.0649549,"lng":141.2313479,"tags":["cafe"],"rating":null,"reviews":0},{"id":592,"name":"カプチーノ詩季","pref":"岩手県","city":"盛岡市","lat":39.7022911,"lng":141.1384255,"tags":["cafe"],"rating":null,"reviews":0},{"id":593,"name":"花水木カフェ","pref":"岩手県","city":"盛岡市","lat":39.7349281,"lng":141.1394458,"tags":["cafe"],"rating":null,"reviews":0},{"id":594,"name":"自家焙煎 杉本珈琲店","pref":"秋田県","city":"秋田市","lat":39.7211888,"lng":140.1156409,"tags":["specialty","cafe"],"rating":null,"reviews":0},{"id":595,"name":"キーコーヒー㈱(KEY COFFEE) 盛岡営業所","pref":"岩手県","city":"盛岡市","lat":39.6597152,"lng":141.1570796,"tags":["cafe"],"rating":null,"reviews":0},{"id":596,"name":"自家焙煎珈琲 cafe SAKUYA","pref":"秋田県","city":"鹿角市","lat":40.1911768,"lng":140.7877643,"tags":["specialty","cafe"],"rating":null,"reviews":0},{"id":597,"name":"森のみみずく","pref":"岩手県","city":"北上市","lat":39.2836292,"lng":141.1179822,"tags":["cafe"],"rating":null,"reviews":0},{"id":598,"name":"ドッピオコーヒーファクトリー","pref":"秋田県","city":"大仙市","lat":39.4511744,"lng":140.480198,"tags":["cafe"],"rating":null,"reviews":0},{"id":599,"name":"Cafe 優しい時間","pref":"岩手県","city":"花巻市","lat":39.3890151,"lng":141.1209716,"tags":["cafe"],"rating":null,"reviews":0},{"id":600,"name":"佐文酒店･喫茶ロイス","pref":"岩手県","city":"一関市","lat":38.927257,"lng":141.117268,"tags":["cafe"],"rating":null,"reviews":0},{"id":601,"name":"カフェもりそん","pref":"岩手県","city":"一関市","lat":38.940167,"lng":141.1265309,"tags":["cafe"],"rating":null,"reviews":0},{"id":602,"name":"JAZZRIZE STORE","pref":"岩手県","city":"奥州市","lat":39.1389151,"lng":141.139819,"tags":["cafe"],"rating":null,"reviews":0},{"id":603,"name":"カフェ･ピッツェリア ヴィラ玉山","pref":"岩手県","city":"盛岡市","lat":39.8345523,"lng":141.1586784,"tags":["cafe"],"rating":null,"reviews":0},{"id":604,"name":"六花 (Rokka)","pref":"岩手県","city":"九戸郡","lat":40.1097063,"lng":141.8070134,"tags":["cafe"],"rating":null,"reviews":0},{"id":605,"name":"珈琲焙煎工房 バルーガ","pref":"秋田県","city":"湯沢市","lat":39.0676136,"lng":140.4591403,"tags":["specialty","cafe"],"rating":null,"reviews":0},{"id":606,"name":"HATAYA demi","pref":"岩手県","city":"盛岡市","lat":39.7058064,"lng":141.1383869,"tags":["cafe","online"],"rating":null,"reviews":0},{"id":607,"name":"和風喫茶 手風琴","pref":"岩手県","city":"北上市","lat":39.291512,"lng":141.118485,"tags":["cafe"],"rating":null,"reviews":0},{"id":608,"name":"東京屋カフェ","pref":"岩手県","city":"陸前高田市","lat":39.0154034,"lng":141.628808,"tags":["cafe"],"rating":null,"reviews":0},{"id":609,"name":"ESP自家焙煎珈琲","pref":"秋田県","city":"秋田市","lat":39.7159691,"lng":140.1209401,"tags":["specialty"],"rating":null,"reviews":0},{"id":610,"name":"Wolf Coffee Roasters","pref":"岩手県","city":"岩手郡","lat":39.7052297,"lng":140.9824549,"tags":["specialty","cafe"],"rating":null,"reviews":0},{"id":611,"name":"Cafe LAube(カフェローブ)花巻店","pref":"岩手県","city":"花巻市","lat":39.4073807,"lng":141.125002,"tags":["cafe"],"rating":null,"reviews":0},{"id":612,"name":"CAFE LAube","pref":"岩手県","city":"盛岡市","lat":39.7016955,"lng":141.136455,"tags":["cafe"],"rating":null,"reviews":0},{"id":613,"name":"MINARI COFFEE","pref":"岩手県","city":"花巻市","lat":39.4444887,"lng":141.1357981,"tags":["cafe"],"rating":null,"reviews":0},{"id":614,"name":"Cafe LAube(カフェローブ) 厨川店","pref":"岩手県","city":"盛岡市","lat":39.7441852,"lng":141.1305245,"tags":["cafe"],"rating":null,"reviews":0},{"id":615,"name":"東北DRIPPERS COFFEE STAND 盛岡駅ビルフェザン店","pref":"岩手県","city":"盛岡市","lat":39.7020591,"lng":141.1362298,"tags":["cafe"],"rating":null,"reviews":0},{"id":616,"name":"くまの森珈琲","pref":"岩手県","city":"紫波郡","lat":39.5992564,"lng":141.1451228,"tags":["cafe"],"rating":null,"reviews":0},{"id":617,"name":"マドカ珈琲店 神子田朝市店","pref":"岩手県","city":"盛岡市","lat":39.6879514,"lng":141.1628517,"tags":["cafe"],"rating":null,"reviews":0},{"id":618,"name":"Coffee Roaster Sagace","pref":"岩手県","city":"盛岡市","lat":39.7215017,"lng":141.1089933,"tags":["specialty","cafe"],"rating":null,"reviews":0},{"id":619,"name":"Cafe&Cake Kashico","pref":"岩手県","city":"花巻市","lat":39.5491852,"lng":141.3648167,"tags":["cafe"],"rating":null,"reviews":0},{"id":620,"name":"chori_coffee(調理珈琲店)","pref":"岩手県","city":"","lat":32.9998961,"lng":138.4293072,"tags":["cafe"],"rating":null,"reviews":0},{"id":621,"name":"香音","pref":"岩手県","city":"一関市","lat":38.9304309,"lng":141.1260561,"tags":["cafe"],"rating":null,"reviews":0},{"id":622,"name":"煎りたてモクコーヒー【焙煎所】","pref":"岩手県","city":"大船渡市","lat":39.0067222,"lng":141.7064841,"tags":["specialty"],"rating":null,"reviews":0},{"id":623,"name":"Mont Ceri.","pref":"岩手県","city":"盛岡市","lat":39.702003,"lng":141.1518492,"tags":["cafe"],"rating":null,"reviews":0},{"id":624,"name":"きじやまCafe民泊","pref":"岩手県","city":"盛岡市","lat":39.7211678,"lng":141.1519658,"tags":["cafe"],"rating":null,"reviews":0},{"id":625,"name":"ima PORT","pref":"岩手県","city":"滝沢市","lat":39.7363331,"lng":141.0871918,"tags":["cafe"],"rating":null,"reviews":0},{"id":626,"name":"手焼きコーヒーの店 新湖月","pref":"岩手県","city":"盛岡市","lat":39.6986644,"lng":141.1571874,"tags":["cafe"],"rating":null,"reviews":0},{"id":627,"name":"アロウェット","pref":"岩手県","city":"奥州市","lat":39.1293395,"lng":141.1342448,"tags":["cafe"],"rating":null,"reviews":0},{"id":628,"name":"ジュピター 盛岡フェザン店","pref":"岩手県","city":"盛岡市","lat":39.7027715,"lng":141.1357542,"tags":["cafe"],"rating":null,"reviews":0},{"id":629,"name":"CAFE ojacco","pref":"岩手県","city":"紫波郡","lat":39.6109775,"lng":141.1526072,"tags":["cafe"],"rating":null,"reviews":0},{"id":630,"name":"YAMANECO COFFEE LAB","pref":"岩手県","city":"久慈市","lat":40.1919512,"lng":141.7786844,"tags":["cafe"],"rating":null,"reviews":0},{"id":631,"name":"りんりん舎","pref":"岩手県","city":"滝沢市","lat":39.732071,"lng":141.0889108,"tags":["cafe"],"rating":null,"reviews":0},{"id":632,"name":"マドカ珈琲店","pref":"岩手県","city":"盛岡市","lat":39.7067041,"lng":141.1515738,"tags":["specialty","cafe"],"rating":null,"reviews":0},{"id":633,"name":"つばさカフェ","pref":"岩手県","city":"一関市","lat":38.9337417,"lng":141.4197723,"tags":["cafe"],"rating":null,"reviews":0},{"id":634,"name":"CAFE LAube(カフェローブ) 紫波店","pref":"岩手県","city":"紫波郡","lat":39.5593392,"lng":141.1675844,"tags":["cafe"],"rating":null,"reviews":0},{"id":635,"name":"さとう衣料店/さとう珈琲豆直売","pref":"岩手県","city":"宮古市","lat":39.6409091,"lng":141.9536511,"tags":["online"],"rating":null,"reviews":0},{"id":636,"name":"Rainbow cafe(レインボーカフェ) 盛岡店","pref":"岩手県","city":"盛岡市","lat":39.6607852,"lng":141.161585,"tags":["cafe"],"rating":null,"reviews":0},{"id":637,"name":"フルセイルコーヒー 岩手川崎店","pref":"岩手県","city":"一関市","lat":38.89905,"lng":141.2710933,"tags":["cafe"],"rating":null,"reviews":0},{"id":638,"name":"ヴィラ渋民金井珈琲焙煎考房","pref":"岩手県","city":"盛岡市","lat":39.8345578,"lng":141.1587551,"tags":["specialty","cafe"],"rating":null,"reviews":0},{"id":639,"name":"ワンツリーカフェ","pref":"岩手県","city":"","lat":39.0883941,"lng":141.7081673,"tags":["cafe"],"rating":null,"reviews":0},{"id":640,"name":"West Coffee Stand","pref":"岩手県","city":"八幡平市","lat":40.0018437,"lng":140.9714682,"tags":["cafe"],"rating":null,"reviews":0},{"id":641,"name":"樹里庵","pref":"岩手県","city":"一関市","lat":38.9242804,"lng":141.0057571,"tags":["cafe"],"rating":null,"reviews":0},{"id":642,"name":"繁田園茶舗","pref":"岩手県","city":"盛岡市","lat":39.6997283,"lng":141.1559694,"tags":["cafe"],"rating":null,"reviews":0},{"id":643,"name":"CafeWagtail","pref":"岩手県","city":"滝沢市","lat":39.7989041,"lng":141.1493936,"tags":["cafe"],"rating":null,"reviews":0},{"id":644,"name":"Linen","pref":"岩手県","city":"久慈市","lat":40.1950017,"lng":141.7917891,"tags":["cafe"],"rating":null,"reviews":0},{"id":645,"name":"ロイズ珈琲店","pref":"岩手県","city":"一関市","lat":38.931755,"lng":141.136644,"tags":["cafe"],"rating":null,"reviews":0},{"id":646,"name":"喫茶ＧＥＮ・ＫＩ","pref":"岩手県","city":"盛岡市","lat":39.7009317,"lng":141.1834497,"tags":["cafe"],"rating":null,"reviews":0},{"id":647,"name":"good coffee stand","pref":"岩手県","city":"盛岡市","lat":39.7329656,"lng":141.1443701,"tags":["cafe"],"rating":null,"reviews":0},{"id":648,"name":"cafesoramame","pref":"岩手県","city":"久慈市","lat":40.0855681,"lng":141.7068382,"tags":["cafe"],"rating":null,"reviews":0},{"id":649,"name":"光カフェ","pref":"岩手県","city":"花巻市","lat":39.3960212,"lng":141.0447214,"tags":["cafe"],"rating":null,"reviews":0},{"id":650,"name":"アラジン珈琲 山王店","pref":"秋田県","city":"秋田市","lat":39.7138946,"lng":140.1048083,"tags":["specialty"],"rating":null,"reviews":0},{"id":651,"name":"YASSE COFFEE","pref":"宮城県","city":"気仙沼市","lat":38.9342932,"lng":141.5180005,"tags":["cafe"],"rating":null,"reviews":0},{"id":652,"name":"ロリンズ","pref":"秋田県","city":"由利本荘市","lat":39.3863177,"lng":140.0548731,"tags":["cafe"],"rating":null,"reviews":0},{"id":653,"name":"焙煎工房 麻布珈琲","pref":"秋田県","city":"秋田市","lat":39.6950789,"lng":140.105095,"tags":["specialty"],"rating":null,"reviews":0},{"id":654,"name":"有頂天喫茶","pref":"秋田県","city":"仙北市","lat":39.595187,"lng":140.5638066,"tags":["cafe"],"rating":null,"reviews":0},{"id":655,"name":"自家焙煎珈琲店 Coffee iPPO","pref":"宮城県","city":"登米市","lat":38.7260849,"lng":141.338628,"tags":["specialty","cafe"],"rating":null,"reviews":0},{"id":656,"name":"コーヒー豆太郎","pref":"岩手県","city":"盛岡市","lat":39.7560907,"lng":141.1584266,"tags":["cafe"],"rating":null,"reviews":0},{"id":657,"name":"珈琲焙煎工房 結","pref":"秋田県","city":"由利本荘市","lat":39.3676483,"lng":140.014619,"tags":["specialty"],"rating":null,"reviews":0},{"id":658,"name":"南蛮屋あおい 秋田大町店","pref":"秋田県","city":"秋田市","lat":39.7205701,"lng":140.1172959,"tags":["cafe"],"rating":null,"reviews":0},{"id":659,"name":"08coffee","pref":"秋田県","city":"秋田市","lat":39.7178873,"lng":140.0938602,"tags":["cafe"],"rating":null,"reviews":0},{"id":660,"name":"ペンションアーベント倶楽部","pref":"岩手県","city":"八幡平市","lat":40.0042322,"lng":140.9797781,"tags":["cafe"],"rating":null,"reviews":0},{"id":661,"name":"FOGcoffee","pref":"秋田県","city":"大仙市","lat":39.4600712,"lng":140.4782271,"tags":["cafe"],"rating":null,"reviews":0},{"id":662,"name":"常州園","pref":"岩手県","city":"一関市","lat":38.9295574,"lng":141.1367438,"tags":["cafe"],"rating":null,"reviews":0},{"id":663,"name":"農家レストランらら","pref":"岩手県","city":"岩手郡","lat":39.7280557,"lng":140.9754356,"tags":["cafe"],"rating":null,"reviews":0},{"id":664,"name":"㈱ふうせつ花","pref":"岩手県","city":"八幡平市","lat":40.078617,"lng":141.0218877,"tags":["cafe"],"rating":null,"reviews":0},{"id":665,"name":"BOOKNERD","pref":"岩手県","city":"盛岡市","lat":39.704462,"lng":141.1543601,"tags":["cafe"],"rating":null,"reviews":0},{"id":666,"name":"上米内駅漆工房･待合カフェ","pref":"岩手県","city":"盛岡市","lat":39.7440049,"lng":141.2037564,"tags":["cafe"],"rating":null,"reviews":0},{"id":667,"name":"チーズケーキのチロル 大通店","pref":"岩手県","city":"盛岡市","lat":39.7025445,"lng":141.1481213,"tags":["cafe"],"rating":null,"reviews":0},{"id":668,"name":"やぎさわカフェ アバッセたかた店","pref":"岩手県","city":"陸前高田市","lat":39.0165626,"lng":141.6290538,"tags":["cafe"],"rating":null,"reviews":0},{"id":669,"name":"㈱OCS盛岡","pref":"岩手県","city":"盛岡市","lat":39.7483912,"lng":141.1277032,"tags":["cafe"],"rating":null,"reviews":0},{"id":670,"name":"カフェランテ","pref":"岩手県","city":"盛岡市","lat":39.7117892,"lng":141.0995152,"tags":["cafe"],"rating":null,"reviews":0},{"id":671,"name":"はーでぃ･がーでぃ","pref":"岩手県","city":"奥州市","lat":39.1896776,"lng":141.1784034,"tags":["cafe"],"rating":null,"reviews":0},{"id":672,"name":"タリーズコーヒー 盛岡駅フェザン店","pref":"岩手県","city":"盛岡市","lat":39.7026265,"lng":141.1361034,"tags":["cafe"],"rating":null,"reviews":0},{"id":673,"name":"SATO","pref":"岩手県","city":"西磐井郡","lat":38.9879083,"lng":141.11705,"tags":["cafe"],"rating":null,"reviews":0},{"id":674,"name":"カフェ ポンシャ","pref":"岩手県","city":"北上市","lat":39.2835241,"lng":141.0487411,"tags":["cafe"],"rating":null,"reviews":0},{"id":675,"name":"あぐり夢くちない","pref":"岩手県","city":"北上市","lat":39.299241,"lng":141.205613,"tags":["cafe"],"rating":null,"reviews":0},{"id":676,"name":"駒木米穀店","pref":"岩手県","city":"二戸郡","lat":40.2150359,"lng":141.3007241,"tags":["cafe"],"rating":null,"reviews":0},{"id":677,"name":"Coccole Caffé (ココレ・カフェ)","pref":"岩手県","city":"盛岡市","lat":39.6934193,"lng":141.1243743,"tags":["cafe"],"rating":null,"reviews":0},{"id":678,"name":"ＪＡ岩手ふるさと 産直来夢くん","pref":"岩手県","city":"奥州市","lat":39.1145295,"lng":141.1507073,"tags":["cafe"],"rating":null,"reviews":0},{"id":679,"name":"SHIMONO528","pref":"岩手県","city":"八幡平市","lat":40.0875436,"lng":141.0442517,"tags":["cafe"],"rating":null,"reviews":0},{"id":680,"name":"とんかつ&コーヒースタンド SUEKI(テイクアウト専門店)","pref":"岩手県","city":"盛岡市","lat":39.734142,"lng":141.1127808,"tags":["cafe"],"rating":null,"reviews":0},{"id":681,"name":"古民家cafe ほっこり","pref":"岩手県","city":"北上市","lat":39.3103481,"lng":141.1340992,"tags":["cafe"],"rating":null,"reviews":0},{"id":682,"name":"精茶百年本舗","pref":"岩手県","city":"一関市","lat":38.940727,"lng":141.0841291,"tags":["cafe"],"rating":null,"reviews":0},{"id":683,"name":"かもめテラス 三陸菓匠さいとう 総本店","pref":"岩手県","city":"大船渡市","lat":39.0627311,"lng":141.7219575,"tags":["cafe"],"rating":null,"reviews":0},{"id":684,"name":"遠野醸造（醸造所・TAPROOM）","pref":"岩手県","city":"遠野市","lat":39.3306305,"lng":141.5304212,"tags":["cafe"],"rating":null,"reviews":0},{"id":685,"name":"2door","pref":"岩手県","city":"二戸市","lat":40.2523285,"lng":141.2872163,"tags":["cafe"],"rating":null,"reviews":0},{"id":686,"name":"CACAO broma （カカオ ブローマ）","pref":"岩手県","city":"陸前高田市","lat":39.0079743,"lng":141.6164454,"tags":["cafe"],"rating":null,"reviews":0},{"id":687,"name":"ＪＡいわて花巻 北上産地直売所 あぜみち","pref":"岩手県","city":"北上市","lat":39.3170924,"lng":141.1007381,"tags":["online"],"rating":null,"reviews":0},{"id":688,"name":"かふぇ小豆","pref":"岩手県","city":"奥州市","lat":39.1767094,"lng":141.1518481,"tags":["cafe"],"rating":null,"reviews":0},{"id":689,"name":"cafe noix","pref":"岩手県","city":"一関市","lat":38.9158301,"lng":141.1108044,"tags":["cafe"],"rating":null,"reviews":0},{"id":690,"name":"cafe koCO","pref":"岩手県","city":"一関市","lat":38.9337461,"lng":141.1300878,"tags":["cafe"],"rating":null,"reviews":0},{"id":691,"name":"松尾八幡平物産館 あすぴーて","pref":"岩手県","city":"八幡平市","lat":39.920365,"lng":140.9751707,"tags":["cafe"],"rating":null,"reviews":0},{"id":692,"name":"カフェ 里やま","pref":"岩手県","city":"二戸郡","lat":40.0643073,"lng":141.2294535,"tags":["cafe"],"rating":null,"reviews":0},{"id":693,"name":"産直センター あかさわ","pref":"岩手県","city":"紫波郡","lat":39.555716,"lng":141.2059785,"tags":["cafe"],"rating":null,"reviews":0},{"id":694,"name":"懐珈琲･ZEN","pref":"岩手県","city":"久慈市","lat":40.1890957,"lng":141.7696227,"tags":["cafe"],"rating":null,"reviews":0},{"id":695,"name":"愛菜ファームブルーベリーハウス","pref":"岩手県","city":"一関市","lat":38.9744414,"lng":140.9357614,"tags":["cafe"],"rating":null,"reviews":0},{"id":696,"name":"盛岡クラフトチョコ専門店 クラフティ","pref":"岩手県","city":"","lat":39.6590531,"lng":141.1485676,"tags":["cafe"],"rating":null,"reviews":0},{"id":697,"name":"スターバックス コーヒー 北上店","pref":"岩手県","city":"北上市","lat":39.2938205,"lng":141.1001264,"tags":["cafe"],"rating":null,"reviews":0},{"id":698,"name":"YOKOSAWA CAMPUS","pref":"岩手県","city":"紫波郡","lat":39.5532717,"lng":141.1700585,"tags":["cafe"],"rating":null,"reviews":0},{"id":699,"name":"cafe Vibras","pref":"岩手県","city":"一関市","lat":38.8988108,"lng":141.2728788,"tags":["cafe"],"rating":null,"reviews":0},{"id":700,"name":"光原社可否館","pref":"岩手県","city":"盛岡市","lat":39.7059816,"lng":141.1380043,"tags":["cafe"],"rating":null,"reviews":0},{"id":701,"name":"服部コーヒーフーズ㈱ 北上営業所","pref":"岩手県","city":"北上市","lat":39.243724,"lng":141.084362,"tags":["cafe"],"rating":null,"reviews":0},{"id":702,"name":"すなば珈琲 高田松原店 (道の駅高田松原)","pref":"岩手県","city":"陸前高田市","lat":39.0070174,"lng":141.6265256,"tags":["cafe"],"rating":null,"reviews":0},{"id":703,"name":"喫茶 久遠","pref":"宮城県","city":"仙台市","lat":38.2622692,"lng":140.8659736,"tags":["cafe"],"rating":null,"reviews":0},{"id":704,"name":"Cafe de Ryuban(カフェ ド リュウバン)","pref":"宮城県","city":"仙台市","lat":38.2705128,"lng":140.8586167,"tags":["cafe"],"rating":null,"reviews":0},{"id":705,"name":"ホシヤマ珈琲店 アエル店","pref":"宮城県","city":"仙台市","lat":38.2628049,"lng":140.8817992,"tags":["cafe"],"rating":null,"reviews":0},{"id":706,"name":"ホシヤマ珈琲店 本店","pref":"宮城県","city":"仙台市","lat":38.2647851,"lng":140.8704429,"tags":["cafe"],"rating":null,"reviews":0},{"id":707,"name":"珈巣多夢 柏木店","pref":"宮城県","city":"仙台市","lat":38.2748595,"lng":140.8596927,"tags":["cafe"],"rating":null,"reviews":0},{"id":708,"name":"川政園茶舗はなもも","pref":"宮城県","city":"名取市","lat":38.1724952,"lng":140.8863508,"tags":["cafe"],"rating":null,"reviews":0},{"id":709,"name":"45 COFFEE ROASTERY","pref":"宮城県","city":"仙台市","lat":38.2610262,"lng":140.873161,"tags":["specialty","cafe"],"rating":null,"reviews":0},{"id":710,"name":"自家炭火焙煎 珈琲家","pref":"宮城県","city":"仙台市","lat":38.266485,"lng":140.8666247,"tags":["specialty","cafe"],"rating":null,"reviews":0},{"id":711,"name":"萬国珈琲 仙台茂庭店","pref":"宮城県","city":"仙台市","lat":38.2223368,"lng":140.7879501,"tags":["cafe"],"rating":null,"reviews":0},{"id":712,"name":"cafe cocco","pref":"宮城県","city":"仙台市","lat":38.2757434,"lng":140.9624952,"tags":["cafe"],"rating":null,"reviews":0},{"id":713,"name":"とーもん","pref":"宮城県","city":"仙台市","lat":38.2604162,"lng":140.879226,"tags":["cafe"],"rating":null,"reviews":0},{"id":714,"name":"岳山珈琲 榴岡店","pref":"宮城県","city":"仙台市","lat":38.2581907,"lng":140.8880342,"tags":["specialty"],"rating":null,"reviews":0},{"id":715,"name":"coffee beans shop Lemon","pref":"宮城県","city":"仙台市","lat":38.1905683,"lng":140.8788611,"tags":["specialty","online","cafe"],"rating":null,"reviews":0},{"id":716,"name":"HONOKA COFFEE 仙台駅店","pref":"宮城県","city":"仙台市","lat":38.2613359,"lng":140.8821493,"tags":["cafe"],"rating":null,"reviews":0},{"id":717,"name":"自家焙煎まめ舎 伊藤珈琲","pref":"宮城県","city":"仙台市","lat":38.3391741,"lng":140.8354018,"tags":["specialty"],"rating":null,"reviews":0},{"id":718,"name":"自家焙煎珈琲幸房 風","pref":"宮城県","city":"登米市","lat":38.6712782,"lng":141.1948179,"tags":["specialty"],"rating":null,"reviews":0},{"id":719,"name":"蔵王の森焙煎工房 旅籠町店","pref":"山形県","city":"山形市","lat":38.256718,"lng":140.3354189,"tags":["specialty"],"rating":null,"reviews":0},{"id":720,"name":"木香珈琲","pref":"宮城県","city":"栗原市","lat":38.7921777,"lng":141.0777257,"tags":["cafe"],"rating":null,"reviews":0},{"id":721,"name":"アトリエ鹿野/おおさき珈琲 西古川焙煎所","pref":"宮城県","city":"大崎市","lat":38.5777071,"lng":140.8948142,"tags":["specialty"],"rating":null,"reviews":0},{"id":722,"name":"いずみや珈琲豆店","pref":"宮城県","city":"仙台市","lat":38.2428232,"lng":140.8641115,"tags":["cafe"],"rating":null,"reviews":0},