[
  {
    "id": 1,
    "name": "Coffee Wrights 蔵前 ロースタリー＆カフェ",
    "pref": "東京都",
    "city": "台東区",
    "address": "〒111-0051 東京都台東区蔵前４丁目２０−２",
    "lat": 35.7040789,
    "lng": 139.7897193,
    "rating": 4.4,
    "reviews": 0,
    "tags": [
      "specialty",
      "cafe"
    ],
    "website": "http://www.coffee-wrights.jp/",
    "phone": "03-3863-3320",
    "instagram": "",
    "category": "",
    "hours": {},
    "photos": [],
    "payment": [],
    "services": []
  },
  {
    "id": 2,
    "name": "私立珈琲小学校 Coffee Elementary School",
    "pref": "東京都",
    "city": "墨田区",
    "address": "〒130-0013 東京都墨田区錦糸４丁目９−９ 宮本マンション２ 102",
    "lat": 35.6977011,
    "lng": 139.8179749,
    "rating": null,
    "reviews": 0,
    "tags": [
      "cafe"
    ],
    "website": "https://coffeeelementaryschool.com/",
    "phone": "",
    "instagram": "",
    "category": "",
    "hours": {},
    "photos": [],
    "payment": [],
    "services": []
  },
  {
    "id": 3,
    "name": "青海珈琲焙煎豆直売所 神田店",
    "pref": "東京都",
    "city": "千代田区",
    "address": "〒101-0047 東京都千代田区内神田２丁目６−４ 柴田ビル 1F",
    "lat": 35.6904925,
    "lng": 139.7672646,
    "rating": 4.3,
    "reviews": 0,
    "tags": [
      "specialty",
      "online"
    ],
    "website": "https://www.aomi-coffee.com/",
    "phone": "03-6285-2680",
    "instagram": "",
    "category": "",
    "hours": {},
    "photos": [],
    "payment": [],
    "services": []
  },
  {
    "id": 4,
    "name": "LOWKEYTONE COFFEE STAND（ローキートーンコーヒースタンド）",
    "pref": "東京都",
    "city": "世田谷区",
    "address": "〒157-0073 東京都世田谷区砧６丁目３７−6-E",
    "lat": 35.6426966,
    "lng": 139.609295,
    "rating": null,
    "reviews": 0,
    "tags": [
      "cafe"
    ],
    "website": "https://r.goope.jp/lowkeytonestand",
    "phone": "",
    "instagram": "",
    "category": "",
    "hours": {},
    "photos": [],
    "payment": [],
    "services": []
  },
  {
    "id": 5,
    "name": "YAESU COFFEE SENJUOHKAWA ROASTERY 八重洲珈琲 千住大川町焙煎所",
    "pref": "東京都",
    "city": "足立区",
    "address": "〒120-0031 東京都足立区千住大川町３０−２",
    "lat": 35.7564726,
    "lng": 139.7972235,
    "rating": 4.9,
    "reviews": 0,
    "tags": [
      "specialty",
      "cafe"
    ],
    "website": "https://instagram.com/yaesucoffee",
    "phone": "",
    "instagram": "",
    "category": "",
    "hours": {},
    "photos": [],
    "payment": [],
    "services": []
  },
  {
    "id": 6,
    "name": "スペシャルティコーヒー豆専門店 cafe marche kunikuni",
    "pref": "東京都",
    "city": "世田谷区",
    "address": "〒156-0052 東京都世田谷区経堂２丁目４−８ アンテロープ経堂 A号室",
    "lat": 35.6525054,
    "lng": 139.6356763,
    "rating": null,
    "reviews": 0,
    "tags": [
      "specialty",
      "cafe"
    ],
    "website": "http://kunikunimame.com/",
    "phone": "03-5799-4822",
    "instagram": "",
    "category": "",
    "hours": {},
    "photos": [],
    "payment": [],
    "services": []
  },
  {
    "id": 7,
    "name": "グリーンビーンズコーヒー",
    "pref": "東京都",
    "city": "渋谷区",
    "address": "〒151-0051 東京都渋谷区千駄ケ谷３丁目３０−１ RC APARTMENT1F",
    "lat": 35.6775167,
    "lng": 139.7078346,
    "rating": null,
    "reviews": 0,
    "tags": [
      "cafe"
    ],
    "website": "https://greenbeanscoffeeambassador.com/",
    "phone": "03-6447-0681",
    "instagram": "",
    "category": "",
    "hours": {},
    "photos": [],
    "payment": [],
    "services": []
  },
  {
    "id": 8,
    "name": "虎へび珈琲",
    "pref": "東京都",
    "city": "渋谷区",
    "address": "〒150-0042 東京都渋谷区宇田川町１５−１ 渋谷PARCO 3F アウトサイド",
    "lat": 35.6619969,
    "lng": 139.6992611,
    "rating": 4.8,
    "reviews": 0,
    "tags": [
      "cafe"
    ],
    "website": "https://www.instagram.com/torahebi.jp/",
    "phone": "",
    "instagram": "",
    "category": "",
    "hours": {},
    "photos": [],
    "payment": [],
    "services": []
  },
  {
    "id": 9,
    "name": "waku coffee roaster",
    "pref": "東京都",
    "city": "目黒区",
    "address": "〒152-0001 東京都目黒区中央町２丁目３５−１５ スター学大",
    "lat": 35.6316726,
    "lng": 139.6866562,
    "rating": 4.5,
    "reviews": 0,
    "tags": [
      "specialty"
    ],
    "website": "https://wakucoffee.jp/",
    "phone": "03-4500-7990",
    "instagram": "",
    "category": "",
    "hours": {},
    "photos": [],
    "payment": [],
    "services": []
  },
  {
    "id": 10,
    "name": "MARUTAKE COFFEE BEANS",
    "pref": "東京都",
    "city": "中野区",
    "address": "〒165-0027 東京都中野区野方６丁目１８−１４",
    "lat": 35.7225484,
    "lng": 139.6525127,
    "rating": 4.6,
    "reviews": 0,
    "tags": [
      "cafe"
    ],
    "website": "https://marutake-coffee.com/",
    "phone": "03-5327-8153",
    "instagram": "",
    "category": "",
    "hours": {},
    "photos": [],
    "payment": [],
    "services": []
  },
  {
    "id": 11,
    "name": "自家焙煎珈琲みじんこ",
    "pref": "東京都",
    "city": "文京区",
    "address": "〒113-0034 東京都文京区湯島２丁目９−１０ 三組ビル １F",
    "lat": 35.7040204,
    "lng": 139.76689,
    "rating": 4.2,
    "reviews": 0,
    "tags": [
      "specialty"
    ],
    "website": "https://mijinco-coffee.com/",
    "phone": "03-6240-1429",
    "instagram": "",
    "category": "",
    "hours": {},
    "photos": [],
    "payment": [],
    "services": []
  },
  {
    "id": 12,
    "name": "COFFEE ROASTERY SELVA (セルバ)",
    "pref": "東京都",
    "city": "世田谷区",
    "address": "〒158-0097 東京都世田谷区用賀４丁目１２−２ 大山ハイツ 101",
    "lat": 35.6275705,
    "lng": 139.6346442,
    "rating": 4.5,
    "reviews": 0,
    "tags": [
      "specialty"
    ],
    "website": "https://selva.coffee-roastery.com/",
    "phone": "03-6805-7040",
    "instagram": "",
    "category": "",
    "hours": {},
    "photos": [],
    "payment": [],
    "services": []
  },
  {
    "id": 13,
    "name": "THE RISING SUN COFFEE",
    "pref": "東京都",
    "city": "新宿区",
    "address": "〒160-0011 東京都新宿区若葉３丁目８−２",
    "lat": 35.6829822,
    "lng": 139.7239763,
    "rating": null,
    "reviews": 0,
    "tags": [
      "cafe"
    ],
    "website": "https://www.therisingsuncoffee.com/",
    "phone": "",
    "instagram": "",
    "category": "",
    "hours": {},
    "photos": [],
    "payment": [],
    "services": []
  },
  {
    "id": 14,
    "name": "筋金珈琲焙煎所",
    "pref": "東京都",
    "city": "世田谷区",
    "address": "〒155-0031 東京都世田谷区北沢３丁目３１−３ 1F",
    "lat": 35.6646459,
    "lng": 139.6666238,
    "rating": null,
    "reviews": 0,
    "tags": [
      "specialty",
      "cafe"
    ],
    "website": "http://cafeuse.com/",
    "phone": "03-3466-5058",
    "instagram": "",
    "category": "",
    "hours": {},
    "photos": [],
    "payment": [],
    "services": []
  },
  {
    "id": 15,
    "name": "VINOMONDO COFFEE ROASTER",
    "pref": "東京都",
    "city": "江東区",
    "address": "〒135-0031 東京都江東区佐賀１丁目６−１ ウェルコガーデン佐賀 1F",
    "lat": 35.6762562,
    "lng": 139.7890332,
    "rating": null,
    "reviews": 0,
    "tags": [
      "specialty"
    ],
    "website": "http://gumtreecoffeeroaster.stores.jp/",
    "phone": "070-3133-1611",
    "instagram": "",
    "category": "",
    "hours": {},
    "photos": [],
    "payment": [],
    "services": []
  },
  {
    "id": 16,
    "name": "SR Coffee Roaster",
    "pref": "東京都",
    "city": "中央区",
    "address": "〒103-0026 東京都中央区日本橋兜町６−５",
    "lat": 35.6819834,
    "lng": 139.7790749,
    "rating": 4.2,
    "reviews": 0,
    "tags": [
      "specialty",
      "cafe"
    ],
    "website": "https://www.instagram.com/sr_coffeeroaster/",
    "phone": "03-6434-0353",
    "instagram": "",
    "category": "",
    "hours": {},
    "photos": [],
    "payment": [],
    "services": []
  },
  {
    "id": 17,
    "name": "たまじ珈琲 成田東店",
    "pref": "東京都",
    "city": "杉並区",
    "address": "〒166-0015 東京都杉並区成田東２丁目３３−１２",
    "lat": 35.6920567,
    "lng": 139.6369005,
    "rating": 4.7,
    "reviews": 0,
    "tags": [
      "cafe"
    ],
    "website": "https://tamajicoffee.com/",
    "phone": "03-6759-3487",
    "instagram": "",
    "category": "",
    "hours": {},
    "photos": [],
    "payment": [],
    "services": []
  },
  {
    "id": 18,
    "name": "高架下Ond焙煎所 Philosophia Roast & Roastery",
    "pref": "東京都",
    "city": "武蔵野市",
    "address": "〒182-0017 東京都武蔵野市境南町３丁目２ １３ond内",
    "lat": 35.7019795,
    "lng": 139.5388519,
    "rating": null,
    "reviews": 0,
    "tags": [
      "specialty"
    ],
    "website": "https://www.philosophiacoffeeroaster.com/",
    "phone": "050-3390-6388",
    "instagram": "",
    "category": "",
    "hours": {},
    "photos": [],
    "payment": [],
    "services": []
  },
  {
    "id": 19,
    "name": "CoffeeRoastVivace（コーヒーローストビバーチェ）",
    "pref": "東京都",
    "city": "目黒区",
    "address": "〒152-0023 東京都目黒区八雲３丁目６−２２ 小倉八雲マンション 101",
    "lat": 35.618033,
    "lng": 139.668149,
    "rating": 4.7,
    "reviews": 0,
    "tags": [
      "cafe"
    ],
    "website": "https://store.vivace.gift/",
    "phone": "03-3723-3954",
    "instagram": "",
    "category": "",
    "hours": {},
    "photos": [],
    "payment": [],
    "services": []
  },
  {
    "id": 20,
    "name": "手網焙煎 珈琲焙煎舎",
    "pref": "東京都",
    "city": "府中市",
    "address": "〒183-0045 東京都府中市美好町２丁目１７−１０",
    "lat": 35.6739967,
    "lng": 139.4670019,
    "rating": null,
    "reviews": 0,
    "tags": [
      "specialty"
    ],
    "website": "http://coffee-baisensya.jp/",
    "phone": "042-319-8684",
    "instagram": "",
    "category": "",
    "hours": {},
    "photos": [],
    "payment": [],
    "services": []
  },
  {
    "id": 21,
    "name": "Cafe CYAN/思案茶房",
    "pref": "東京都",
    "city": "都港区",
    "address": "〒108-0072 東京都港区白金１丁目１２−２ Jc Residence, 1F",
    "lat": 35.6457233,
    "lng": 139.7343174,
    "rating": null,
    "reviews": 0,
    "tags": [
      "cafe"
    ],
    "website": "https://cafecyan.base.shop/",
    "phone": "03-5422-9693",
    "instagram": "",
    "category": "",
    "hours": {},
    "photos": [],
    "payment": [],
    "services": []
  },
  {
    "id": 22,
    "name": "AOYAMA COFFEE ROASTER",
    "pref": "東京都",
    "city": "台東区",
    "address": "〒110-0001 東京都台東区谷中２丁目５−１０",
    "lat": 35.7215858,
    "lng": 139.7635968,
    "rating": null,
    "reviews": 0,
    "tags": [
      "specialty"
    ],
    "website": "",
    "phone": "080-9537-7984",
    "instagram": "",
    "category": "",
    "hours": {},
    "photos": [],
    "payment": [],
    "services": []
  },
  {
    "id": 23,
    "name": "豆虎 中目黒焙煎所",
    "pref": "東京都",
    "city": "目黒区",
    "address": "〒153-0052 東京都目黒区上目黒３丁目３−７",
    "lat": 35.6441526,
    "lng": 139.6984738,
    "rating": 4.7,
    "reviews": 0,
    "tags": [
      "specialty"
    ],
    "website": "https://www.mametora.jp/",
    "phone": "03-6452-2770",
    "instagram": "",
    "category": "",
    "hours": {},
    "photos": [],
    "payment": [],
    "services": []
  },
  {
    "id": 24,
    "name": "TCL ROASTING FACTORY",
    "pref": "東京都",
    "city": "練馬区",
    "address": "〒177-0045 東京都練馬区石神井台７丁目２４",
    "lat": 35.7328974,
    "lng": 139.5796104,
    "rating": null,
    "reviews": 0,
    "tags": [
      "cafe"
    ],
    "website": "https://couro.co.jp/brand/tcl/",
    "phone": "",
    "instagram": "",
    "category": "",
    "hours": {},
    "photos": [],
    "payment": [],
    "services": []
  },
  {
    "id": 25,
    "name": "渋谷珈琲",
    "pref": "東京都",
    "city": "墨田区",
    "address": "〒130-0012 東京都墨田区太平２丁目１４−７",
    "lat": 35.7019771,
    "lng": 139.8129956,
    "rating": 4.7,
    "reviews": 0,
    "tags": [
      "cafe"
    ],
    "website": "https://twitter.com/shibuyacoffee3",
    "phone": "03-3626-0158",
    "instagram": "",
    "category": "",
    "hours": {},
    "photos": [],
    "payment": [],
    "services": []
  },
  {
    "id": 26,
    "name": "KOFFEE MAMEYA",
    "pref": "東京都",
    "city": "渋谷区",
    "address": "〒150-0001 東京都渋谷区神宮前４丁目１５−３",
    "lat": 35.668368,
    "lng": 139.710888,
    "rating": null,
    "reviews": 0,
    "tags": [
      "cafe"
    ],
    "website": "http://koffee-mameya.com/",
    "phone": "03-5413-9422",
    "instagram": "",
    "category": "",
    "hours": {},
    "photos": [],
    "payment": [],
    "services": []
  },
  {
    "id": 27,
    "name": "焙煎所&カフェ コーヒーウテナ",
    "pref": "東京都",
    "city": "杉並区",
    "address": "〒166-0001 東京都杉並区阿佐谷北３丁目１１−２３",
    "lat": 35.7092428,
    "lng": 139.6345097,
    "rating": 4.8,
    "reviews": 0,
    "tags": [
      "specialty",
      "cafe"
    ],
    "website": "https://www.instagram.com/coffee.utena",
    "phone": "",
    "instagram": "",
    "category": "",
    "hours": {},
    "photos": [],
    "payment": [],
    "services": []
  },
  {
    "id": 28,
    "name": "Factory & Labo 神乃珈琲",
    "pref": "東京都",
    "city": "目黒区",
    "address": "〒152-0001 東京都目黒区中央町１丁目４−１４",
    "lat": 35.6284597,
    "lng": 139.694084,
    "rating": 4.1,
    "reviews": 0,
    "tags": [
      "cafe"
    ],
    "website": "https://www.kannocoffee.com/wp/shopinfo/factory_labo",
    "phone": "03-6451-2823",
    "instagram": "",
    "category": "",
    "hours": {},
    "photos": [],
    "payment": [],
    "services": []
  },
  {
    "id": 29,
    "name": "Tavie Coffee Roaster Engawa Stand",
    "pref": "東京都",
    "city": "文京区",
    "address": "〒113-0022 東京都文京区千駄木２丁目１０−１７ 清水荘 101号室",
    "lat": 35.7223953,
    "lng": 139.7600595,
    "rating": 5.0,
    "reviews": 0,
    "tags": [
      "specialty",
      "cafe"
    ],
    "website": "https://coffeetavie.base.shop/",
    "phone": "",
    "instagram": "",
    "category": "",
    "hours": {},
    "photos": [],
    "payment": [],
    "services": []
  },
  {
    "id": 30,
    "name": "金星珈琲",
    "pref": "東京都",
    "city": "墨田区",
    "address": "〒130-0001 東京都墨田区吾妻橋１丁目２２−５",
    "lat": 35.7098297,
    "lng": 139.8019189,
    "rating": 4.8,
    "reviews": 0,
    "tags": [
      "cafe"
    ],
    "website": "http://kinseicoffee.com/",
    "phone": "03-6658-4607",
    "instagram": "",
    "category": "",
    "hours": {},
    "photos": [],
    "payment": [],
    "services": []
  },
  {
    "id": 31,
    "name": "Blackhole Coffee Roaster",
    "pref": "東京都",
    "city": "荒川区",
    "address": "〒116-0001 東京都荒川区町屋４丁目３１−１１",
    "lat": 35.7489387,
    "lng": 139.7794588,
    "rating": 4.4,
    "reviews": 0,
    "tags": [
      "specialty"
    ],
    "website": "https://www.blackholecoffee.jp/",
    "phone": "03-6807-9767",
    "instagram": "",
    "category": "",
    "hours": {},
    "photos": [],
    "payment": [],
    "services": []
  },
  {
    "id": 32,
    "name": "KARTA COFFEE",
    "pref": "東京都",
    "city": "文京区",
    "address": "〒112-0002 東京都文京区小石川１丁目１６−７ １F",
    "lat": 35.7132575,
    "lng": 139.7512229,
    "rating": null,
    "reviews": 0,
    "tags": [
      "cafe"
    ],
    "website": "https://www.kartacoffee.com/",
    "phone": "03-5615-8208",
    "instagram": "",
    "category": "",
    "hours": {},
    "photos": [],
    "payment": [],
    "services": []
  },
  {
    "id": 33,
    "name": "Brewman Tokyo",
    "pref": "東京都",
    "city": "渋谷区",
    "address": "〒151-0053 東京都渋谷区代々木３丁目１３−１ SMI:RE YOYOGI 1C",
    "lat": 35.6840123,
    "lng": 139.6949486,
    "rating": 4.8,
    "reviews": 0,
    "tags": [
      "cafe"
    ],
    "website": "https://www.brewmantokyo.com/",
    "phone": "080-3390-4545",
    "instagram": "",
    "category": "",
    "hours": {},
    "photos": [],
    "payment": [],
    "services": []
  },
  {
    "id": 34,
    "name": "自家焙煎珈琲豆店 悠ゆう工房",
    "pref": "東京都",
    "city": "豊島区",
    "address": "〒171-0051 東京都豊島区長崎４丁目２８−２",
    "lat": 35.7308264,
    "lng": 139.6843781,
    "rating": 4.9,
    "reviews": 0,
    "tags": [
      "specialty"
    ],
    "website": "",
    "phone": "03-3530-7295",
    "instagram": "",
    "category": "",
    "hours": {},
    "photos": [],
    "payment": [],
    "services": []
  },
  {
    "id": 35,
    "name": "コーヒーローストＳＡＩ",
    "pref": "東京都",
    "city": "都港区",
    "address": "〒108-0074 東京都港区高輪１丁目２１−３ チバビル 1F",
    "lat": 35.6384999,
    "lng": 139.7343014,
    "rating": null,
    "reviews": 0,
    "tags": [
      "cafe"
    ],
    "website": "https://coffeeroastsai.com/",
    "phone": "03-3449-7007",
    "instagram": "",
    "category": "",
    "hours": {},
    "photos": [],
    "payment": [],
    "services": []
  },
  {
    "id": 36,
    "name": "de. coffee roasters",
    "pref": "東京都",
    "city": "中央区",
    "address": "〒103-0007 東京都中央区日本橋浜町３丁目１−４ 1F",
    "lat": 35.6835777,
    "lng": 139.7883455,
    "rating": 4.7,
    "reviews": 0,
    "tags": [
      "specialty"
    ],
    "website": "https://decoffee.jp/?utm_source=gbp&utm_medium=maps&utm_campaign=main",
    "phone": "",
    "instagram": "",
    "category": "",
    "hours": {},
    "photos": [],
    "payment": [],
    "services": []
  },
  {
    "id": 37,
    "name": "江古田珈琲焙煎所",
    "pref": "東京都",
    "city": "中野区",
    "address": "〒165-0023 東京都中野区江原町２丁目７−１９ 江原荘",
    "lat": 35.7296752,
    "lng": 139.6686411,
    "rating": 4.4,
    "reviews": 0,
    "tags": [
      "specialty"
    ],
    "website": "http://egotacoffee.blog.fc2.com/",
    "phone": "080-3310-2719",
    "instagram": "",
    "category": "",
    "hours": {},
    "photos": [],
    "payment": [],
    "services": []
  },
  {
    "id": 38,
    "name": "BAKU Coffee Roasters 莫珈琲焙煎所",
    "pref": "東京都",
    "city": "江東区",
    "address": "〒135-0047 東京都江東区富岡１丁目２１−１１ 行平コーポラス 103",
    "lat": 35.6706131,
    "lng": 139.8004085,
    "rating": null,
    "reviews": 0,
    "tags": [
      "specialty",
      "cafe"
    ],
    "website": "https://www.instagram.com/bakucoffeeroasters/",
    "phone": "03-6882-4263",
    "instagram": "",
    "category": "",
    "hours": {},
    "photos": [],
    "payment": [],
    "services": []
  },
  {
    "id": 39,
    "name": "ムルマコーヒーストップ",
    "pref": "東京都",
    "city": "渋谷区",
    "address": "〒151-0071 東京都渋谷区本町２丁目６−１",
    "lat": 35.6830025,
    "lng": 139.6836744,
    "rating": 4.7,
    "reviews": 0,
    "tags": [
      "cafe"
    ],
    "website": "https://murrma-coffeestop.shopinfo.jp/",
    "phone": "",
    "instagram": "",
    "category": "",
    "hours": {},
    "photos": [],
    "payment": [],
    "services": []
  },
  {
    "id": 40,
    "name": "珈琲豆焙煎所 ROASTERS CLUB",
    "pref": "東京都",
    "city": "小平市",
    "address": "〒187-0011 東京都小平市鈴木町１丁目２５７−６",
    "lat": 35.7266295,
    "lng": 139.50068,
    "rating": null,
    "reviews": 0,
    "tags": [
      "specialty",
      "cafe"
    ],
    "website": "https://www.instagram.com/roasters.club",
    "phone": "042-407-2233",
    "instagram": "",
    "category": "",
    "hours": {},
    "photos": [],
    "payment": [],
    "services": []
  },
  {
    "id": 41,
    "name": "珈琲焙煎処 縁の木",
    "pref": "東京都",
    "city": "台東区",
    "address": "〒111-0051 東京都台東区蔵前２丁目３−１",
    "lat": 35.7021051,
    "lng": 139.7901018,
    "rating": null,
    "reviews": 0,
    "tags": [
      "specialty"
    ],
    "website": "https://en-no-ki.com/",
    "phone": "080-7038-1178",
    "instagram": "",
    "category": "",
    "hours": {},
    "photos": [],
    "payment": [],
    "services": []
  },
  {
    "id": 42,
    "name": "ヤマモトコーヒー店 新宿",
    "pref": "東京都",
    "city": "新宿区",
    "address": "〒160-0022 東京都新宿区新宿３丁目１７−１１",
    "lat": 35.6923104,
    "lng": 139.7028753,
    "rating": 4.5,
    "reviews": 0,
    "tags": [
      "cafe"
    ],
    "website": "http://www.yamamoto-coffee.co.jp/",
    "phone": "03-3352-5055",
    "instagram": "",
    "category": "",
    "hours": {},
    "photos": [],
    "payment": [],
    "services": []
  },
  {
    "id": 43,
    "name": "ベースキャンプ",
    "pref": "東京都",
    "city": "台東区",
    "address": "〒110-0016 東京都台東区台東３丁目２−１１",
    "lat": 35.7039995,
    "lng": 139.781058,
    "rating": 4.5,
    "reviews": 0,
    "tags": [
      "cafe"
    ],
    "website": "https://basecampcoffee.web.fc2.com/",
    "phone": "03-3831-0613",
    "instagram": "",
    "category": "",
    "hours": {},
    "photos": [],
    "payment": [],
    "services": []
  },
  {
    "id": 44,
    "name": "SECOND.coffee＆(焙煎所・コーヒースタンド)",
    "pref": "東京都",
    "city": "豊島区",
    "address": "〒171-0052 東京都豊島区南長崎５丁目２０−３ 南長崎マンション",
    "lat": 35.7288129,
    "lng": 139.6810971,
    "rating": 5.0,
    "reviews": 0,
    "tags": [
      "specialty",
      "cafe"
    ],
    "website": "https://second-coffee.jp/",
    "phone": "03-6820-2310",
    "instagram": "",
    "category": "",
    "hours": {},
    "photos": [],
    "payment": [],
    "services": []
  },
  {
    "id": 45,
    "name": "さかい珈琲",
    "pref": "東京都",
    "city": "練馬区",
    "address": "〒179-0081 東京都練馬区北町８丁目３３−８ ソフィア 401 401",
    "lat": 35.7677667,
    "lng": 139.6468986,
    "rating": 4.5,
    "reviews": 0,
    "tags": [
      "cafe"
    ],
    "website": "https://sakaicoffeeblog.wordpress.com/",
    "phone": "03-3936-0023",
    "instagram": "",
    "category": "",
    "hours": {},
    "photos": [],
    "payment": [],
    "services": []
  },
  {
    "id": 46,
    "name": "TOKYO COFFEE ROASTERY CAFE",
    "pref": "東京都",
    "city": "東久留米市",
    "address": "〒203-0033 東京都東久留米市滝山４丁目１−４０",
    "lat": 35.7446282,
    "lng": 139.5055807,
    "rating": null,
    "reviews": 0,
    "tags": [
      "specialty",
      "cafe"
    ],
    "website": "https://tokyocoffee.jp/",
    "phone": "042-420-1145",
    "instagram": "",
    "category": "",
    "hours": {},
    "photos": [],
    "payment": [],
    "services": []
  },
  {
    "id": 47,
    "name": "ミツマタコーヒー MITSUMATA COFFEE ROASTER",
    "pref": "東京都",
    "city": "品川区",
    "address": "〒140-0014 東京都品川区大井４丁目１−２ メゾン・ド・ピュア 101",
    "lat": 35.603751,
    "lng": 139.7329072,
    "rating": 4.6,
    "reviews": 0,
    "tags": [
      "specialty"
    ],
    "website": "https://mitsumatacoffee.com/",
    "phone": "03-6410-7970",
    "instagram": "",
    "category": "",
    "hours": {},
    "photos": [],
    "payment": [],
    "services": []
  },
  {
    "id": 48,
    "name": "マヤ珈琲焙煎所",
    "pref": "東京都",
    "city": "都北区",
    "address": "〒114-0001 東京都北区東十条５丁目２−９",
    "lat": 35.7677467,
    "lng": 139.726581,
    "rating": 4.4,
    "reviews": 0,
    "tags": [
      "specialty"
    ],
    "website": "http://mayacoffee.jp/",
    "phone": "03-6903-9751",
    "instagram": "",
    "category": "",
    "hours": {},
    "photos": [],
    "payment": [],
    "services": []
  },
  {
    "id": 49,
    "name": "ハニービーンズ",
    "pref": "東京都",
    "city": "豊島区",
    "address": "〒170-0002 東京都豊島区２２ 巣鴨３丁目２２−５ プラザ双葉 １０２",
    "lat": 35.733939,
    "lng": 139.736529,
    "rating": 4.7,
    "reviews": 0,
    "tags": [
      "cafe"
    ],
    "website": "http://www.honeybeans-sugamo.com/",
    "phone": "03-5944-5975",
    "instagram": "",
    "category": "",
    "hours": {},
    "photos": [],
    "payment": [],
    "services": []
  },
  {
    "id": 50,
    "name": "しげの珈琲工房",
    "pref": "東京都",
    "city": "墨田区",
    "address": "〒130-0002 東京都墨田区業平２丁目１１−４",
    "lat": 35.70804,
    "lng": 139.811728,
    "rating": 4.6,
    "reviews": 0,
    "tags": [
      "cafe"
    ],
    "website": "http://r.goope.jp/shigenocoffee",
    "phone": "03-6658-8420",
    "instagram": "",
    "category": "",
    "hours": {},
    "photos": [],
    "payment": [],
    "services": []
  },
  {
    "id": 51,
    "name": "FIVE COFFEE STAND&ROASTERY",
    "pref": "東京都",
    "city": "台東区",
    "address": "〒110-0001 東京都台東区谷中１丁目３−６",
    "lat": 35.7191378,
    "lng": 139.7662951,
    "rating": 4.8,
    "reviews": 0,
    "tags": [
      "specialty",
      "cafe"
    ],
    "website": "http://www.fivecoffee.jp/",
    "phone": "",
    "instagram": "",
    "category": "",
    "hours": {},
    "photos": [],
    "payment": [],
    "services": []
  },
  {
    "id": 52,
    "name": "直火焙煎珈琲 香炉庵",
    "pref": "東京都",
    "city": "大田区",
    "address": "〒145-0066 東京都大田区南雪谷２丁目１１−１０",
    "lat": 35.5907458,
    "lng": 139.6826195,
    "rating": 4.7,
    "reviews": 0,
    "tags": [
      "specialty"
    ],
    "website": "https://www.koroan.com/",
    "phone": "03-5499-2149",
    "instagram": "",
    "category": "",
    "hours": {},
    "photos": [],
    "payment": [],
    "services": []
  },
  {
    "id": 53,
    "name": "豆虎 赤坂焙煎所",
    "pref": "東京都",
    "city": "都港区",
    "address": "〒107-0052 東京都港区赤坂３丁目６−１８ 赤坂ニューロイヤルビル本館 101",
    "lat": 35.6741533,
    "lng": 139.7379854,
    "rating": 4.6,
    "reviews": 0,
    "tags": [
      "specialty"
    ],
    "website": "https://www.mametora.jp/",
    "phone": "03-6435-5353",
    "instagram": "",
    "category": "",
    "hours": {},
    "photos": [],
    "payment": [],
    "services": []
  },
  {
    "id": 54,
    "name": "江ノ屋 善福寺珈琲",
    "pref": "東京都",
    "city": "杉並区",
    "address": "〒167-0041 東京都杉並区善福寺２丁目１８−１",
    "lat": 35.7117664,
    "lng": 139.5941667,
    "rating": 4.8,
    "reviews": 0,
    "tags": [
      "cafe"
    ],
    "website": "https://www.enoyacoffee.tokyo/shop/",
    "phone": "03-3390-1307",
    "instagram": "",
    "category": "",
    "hours": {},
    "photos": [],
    "payment": [],
    "services": []
  },
  {
    "id": 55,
    "name": "珈琲豆 優",
    "pref": "東京都",
    "city": "豊島区",
    "address": "〒171-0043 東京都豊島区要町１丁目１３−９ メゾン・デュ・シェーヌ１F",
    "lat": 35.734607,
    "lng": 139.6998474,
    "rating": 4.5,
    "reviews": 0,
    "tags": [
      "cafe"
    ],
    "website": "http://www.coffeemame-you.jp/",
    "phone": "03-5964-0831",
    "instagram": "",
    "category": "",
    "hours": {},
    "photos": [],
    "payment": [],
    "services": []
  },
  {
    "id": 56,
    "name": "KOFFEE MAMEYA Kakeru",
    "pref": "東京都",
    "city": "江東区",
    "address": "〒135-0023 東京都江東区平野２丁目１６−１４",
    "lat": 35.6764735,
    "lng": 139.804184,
    "rating": 4.5,
    "reviews": 0,
    "tags": [
      "cafe"
    ],
    "website": "http://koffee-mameya.com/",
    "phone": "050-1807-6375",
    "instagram": "",
    "category": "",
    "hours": {},
    "photos": [],
    "payment": [],
    "services": []
  },
  {
    "id": 57,
    "name": "THE COFFEESHOP",
    "pref": "東京都",
    "city": "渋谷区",
    "address": "〒151-0063 東京都渋谷区富ケ谷２丁目２２−１２",
    "lat": 35.6626004,
    "lng": 139.6855978,
    "rating": null,
    "reviews": 0,
    "tags": [
      "cafe"
    ],
    "website": "https://thecoffeeshop.jp/",
    "phone": "03-6407-1344",
    "instagram": "",
    "category": "",
    "hours": {},
    "photos": [],
    "payment": [],
    "services": []
  },
  {
    "id": 58,
    "name": "豆虎 富ヶ谷焙煎所",
    "pref": "東京都",
    "city": "渋谷区",
    "address": "〒151-0063 東京都渋谷区富ケ谷１丁目４３−４",
    "lat": 35.6669774,
    "lng": 139.6912171,
    "rating": 4.7,
    "reviews": 0,
    "tags": [
      "specialty"
    ],
    "website": "https://www.mametora.jp/",
    "phone": "03-6407-0061",
    "instagram": "",
    "category": "",
    "hours": {},
    "photos": [],
    "payment": [],
    "services": []
  },
  {
    "id": 59,
    "name": "Little Nap COFFEE STAND",
    "pref": "東京都",
    "city": "渋谷区",
    "address": "〒151-0053 東京都渋谷区代々木５丁目６５−４",
    "lat": 35.6720937,
    "lng": 139.6905932,
    "rating": null,
    "reviews": 0,
    "tags": [
      "cafe"
    ],
    "website": "https://littlenap.jp/",
    "phone": "03-3466-0074",
    "instagram": "",
    "category": "",
    "hours": {},
    "photos": [],
    "payment": [],
    "services": []
  },
  {
    "id": 60,
    "name": "Donish Coffee Company 神楽坂コーヒースタンド",
    "pref": "東京都",
    "city": "新宿区",
    "address": "〒162-0828 東京都新宿区袋町５−１ FARO神楽坂 1F",
    "lat": 35.7010555,
    "lng": 139.7384223,
    "rating": 4.7,
    "reviews": 0,
    "tags": [
      "cafe"
    ],
    "website": "https://donishcoffee.com/",
    "phone": "",
    "instagram": "",
    "category": "",
    "hours": {},
    "photos": [],
    "payment": [],
    "services": []
  },
  {
    "id": 61,
    "name": "珈琲焙煎工房 FLUTTER",
    "pref": "東京都",
    "city": "新宿区",
    "address": "〒160-0023 東京都新宿区西新宿８丁目４−１ ナルコビル 102",
    "lat": 35.6943449,
    "lng": 139.6934808,
    "rating": 4.3,
    "reviews": 0,
    "tags": [
      "specialty",
      "cafe"
    ],
    "website": "https://www.instagram.com/flt_coffee/",
    "phone": "03-4400-8694",
    "instagram": "",
    "category": "",
    "hours": {},
    "photos": [],
    "payment": [],
    "services": []
  },
  {
    "id": 62,
    "name": "自家焙煎 稲荷町珈琲",
    "pref": "東京都",
    "city": "台東区",
    "address": "〒110-0015 東京都台東区東上野５丁目４−３",
    "lat": 35.7120572,
    "lng": 139.7828856,
    "rating": 4.6,
    "reviews": 0,
    "tags": [
      "specialty"
    ],
    "website": "",
    "phone": "",
    "instagram": "",
    "category": "",
    "hours": {},
    "photos": [],
    "payment": [],
    "services": []
  },
  {
    "id": 63,
    "name": "NorthStar Beans",
    "pref": "東京都",
    "city": "品川区",
    "address": "〒140-0001 東京都品川区北品川１丁目３−１８ K･Iビル 2階",
    "lat": 35.6225936,
    "lng": 139.7398077,
    "rating": 4.8,
    "reviews": 0,
    "tags": [
      "cafe"
    ],
    "website": "http://northstar-beans.com/",
    "phone": "03-3458-8869",
    "instagram": "",
    "category": "",
    "hours": {},
    "photos": [],
    "payment": [],
    "services": []
  },
  {
    "id": 64,
    "name": "Jubilee Coffee and Roaster",
    "pref": "東京都",
    "city": "都港区",
    "address": "〒108-0071 東京都港区白金台３丁目１８−１０",
    "lat": 35.6357226,
    "lng": 139.7216609,
    "rating": 4.5,
    "reviews": 0,
    "tags": [
      "specialty"
    ],
    "website": "https://jubilee-coffee.jp/",
    "phone": "03-6721-7939",
    "instagram": "",
    "category": "",
    "hours": {},
    "photos": [],
    "payment": [],
    "services": []
  },
  {
    "id": 65,
    "name": "コーヒー豆専門店 豆善",
    "pref": "東京都",
    "city": "世田谷区",
    "address": "〒154-0012 東京都世田谷区駒沢２丁目２−１ フェリーチェ東が丘 駒沢1F",
    "lat": 35.6335859,
    "lng": 139.6607439,
    "rating": 4.7,
    "reviews": 0,
    "tags": [
      "cafe"
    ],
    "website": "https://espressotokyo.jp/",
    "phone": "050-3095-5691",
    "instagram": "",
    "category": "",
    "hours": {},
    "photos": [],
    "payment": [],
    "services": []
  },
  {
    "id": 66,
    "name": "TABI TO COFFEE Asakusa 2F | タビトコーヒー",
    "pref": "東京都",
    "city": "台東区",
    "address": "〒111-0035 東京都台東区西浅草１丁目７−２０ 2F",
    "lat": 35.7106839,
    "lng": 139.7914754,
    "rating": 4.9,
    "reviews": 0,
    "tags": [
      "cafe"
    ],
    "website": "https://www.instagram.com/tabi_to_coffee?igsh=amFub2VxaXR3OGVo&utm_source=qr",
    "phone": "",
    "instagram": "",
    "category": "",
    "hours": {},
    "photos": [],
    "payment": [],
    "services": []
  },
  {
    "id": 67,
    "name": "マメココロ - 浅草",
    "pref": "東京都",
    "city": "台東区",
    "address": "〒111-0032 東京都台東区浅草３丁目１８−９",
    "lat": 35.7172433,
    "lng": 139.7950603,
    "rating": 4.7,
    "reviews": 0,
    "tags": [
      "cafe"
    ],
    "website": "https://mamecocoro.jp/",
    "phone": "03-6875-5292",
    "instagram": "",
    "category": "",
    "hours": {},
    "photos": [],
    "payment": [],
    "services": []
  },
  {
    "id": 68,
    "name": "67焙煎所",
    "pref": "東京都",
    "city": "練馬区",
    "address": "〒176-0013 東京都練馬区豊玉中３丁目１４−１２ グリーンコーポ豊玉",
    "lat": 35.7331409,
    "lng": 139.6545156,
    "rating": 4.7,
    "reviews": 0,
    "tags": [
      "specialty"
    ],
    "website": "http://coffee67.tokyo/",
    "phone": "",
    "instagram": "",
    "category": "",
    "hours": {},
    "photos": [],
    "payment": [],
    "services": []
  },
  {
    "id": 69,
    "name": "SOL'S COFFEE ROASTERY",
    "pref": "東京都",
    "city": "台東区",
    "address": "〒111-0053 東京都台東区浅草橋３丁目２５−７ ＮＩ ビル 1F",
    "lat": 35.7013958,
    "lng": 139.7883723,
    "rating": null,
    "reviews": 0,
    "tags": [
      "specialty",
      "cafe"
    ],
    "website": "https://www.instagram.com/solscoffee_roastery?igsh=NXl6cm5iaHRicHpn&utm_source=qr",
    "phone": "03-5829-8824",
    "instagram": "",
    "category": "",
    "hours": {},
    "photos": [],
    "payment": [],
    "services": []
  },
  {
    "id": 70,
    "name": "GLOBE COFFEE",
    "pref": "東京都",
    "city": "品川区",
    "address": "〒142-0062 東京都品川区小山５丁目２５−１０ 平岡マンション 1B",
    "lat": 35.614425,
    "lng": 139.700408,
    "rating": 4.4,
    "reviews": 0,
    "tags": [
      "cafe"
    ],
    "website": "https://globecoffee.tokyo/",
    "phone": "03-6426-2234",
    "instagram": "",
    "category": "",
    "hours": {},
    "photos": [],
    "payment": [],
    "services": []
  },
  {
    "id": 71,
    "name": "AVI COFFEE",
    "pref": "東京都",
    "city": "目黒区",
    "address": "〒152-0004 東京都目黒区鷹番２丁目１８−１",
    "lat": 35.628,
    "lng": 139.6867339,
    "rating": 4.6,
    "reviews": 0,
    "tags": [
      "cafe"
    ],
    "website": "",
    "phone": "03-3712-8288",
    "instagram": "",
    "category": "",
    "hours": {},
    "photos": [],
    "payment": [],
    "services": []
  },
  {
    "id": 72,
    "name": "石川珈琲焙煎所",
    "pref": "東京都",
    "city": "台東区",
    "address": "〒111-0042 東京都台東区寿１丁目２１−１０",
    "lat": 35.708522,
    "lng": 139.788515,
    "rating": 4.6,
    "reviews": 0,
    "tags": [
      "specialty"
    ],
    "website": "",
    "phone": "03-6231-7583",
    "instagram": "",
    "category": "",
    "hours": {},
    "photos": [],
    "payment": [],
    "services": []
  },
  {
    "id": 73,
    "name": "BRÜCKE coffee",
    "pref": "東京都",
    "city": "足立区",
    "address": "〒120-0046 東京都足立区小台２丁目１７−１１",
    "lat": 35.7566787,
    "lng": 139.7621345,
    "rating": 4.5,
    "reviews": 0,
    "tags": [
      "cafe"
    ],
    "website": "https://odaibrucke.org/",
    "phone": "",
    "instagram": "",
    "category": "",
    "hours": {},
    "photos": [],
    "payment": [],
    "services": []
  },
  {
    "id": 74,
    "name": "久我山珈琲焙煎所",
    "pref": "東京都",
    "city": "杉並区",
    "address": "〒168-0082 東京都杉並区久我山４丁目５０−１ あづさ荘",
    "lat": 35.6893409,
    "lng": 139.6000978,
    "rating": 4.7,
    "reviews": 0,
    "tags": [
      "specialty"
    ],
    "website": "",
    "phone": "03-5370-2585",
    "instagram": "",
    "category": "",
    "hours": {},
    "photos": [],
    "payment": [],
    "services": []
  },
  {
    "id": 75,
    "name": "珈琲豆焙煎所 Toden Coffee",
    "pref": "東京都",
    "city": "豊島区",
    "address": "〒171-0032 東京都豊島区雑司が谷２丁目８−７",
    "lat": 35.720295,
    "lng": 139.7151417,
    "rating": 4.8,
    "reviews": 0,
    "tags": [
      "specialty"
    ],
    "website": "https://todencoffee.com/",
    "phone": "03-6907-1820",
    "instagram": "",
    "category": "",
    "hours": {},
    "photos": [],
    "payment": [],
    "services": []
  },
  {
    "id": 76,
    "name": "ひとつぶ珈琲",
    "pref": "東京都",
    "city": "都北区",
    "address": "〒114-0001 東京都北区５ 東十条２丁目５−６ ヒットフジビル1F",
    "lat": 35.7631782,
    "lng": 139.7294749,
    "rating": 4.7,
    "reviews": 0,
    "tags": [
      "cafe"
    ],
    "website": "http://www.hitotubu-coffee.com/",
    "phone": "03-5944-6662",
    "instagram": "",
    "category": "",
    "hours": {},
    "photos": [],
    "payment": [],
    "services": []
  },
  {
    "id": 77,
    "name": "焙煎所Cafe",
    "pref": "東京都",
    "city": "文京区",
    "address": "〒113-0033 東京都文京区本郷７丁目３−３ 南研究棟",
    "lat": 35.7105052,
    "lng": 139.7642684,
    "rating": null,
    "reviews": 0,
    "tags": [
      "specialty",
      "cafe"
    ],
    "website": "https://www.instagram.com/baisenjyocafe/",
    "phone": "070-2100-1779",
    "instagram": "",
    "category": "",
    "hours": {},
    "photos": [],
    "payment": [],
    "services": []
  },
  {
    "id": 78,
    "name": "舘田珈琲焙煎所(TATEDA COFFEE ROASTERY)",
    "pref": "東京都",
    "city": "中央区",
    "address": "〒104-0032 東京都中央区八丁堀３丁目１１−１２ 2F FLOOR AND WALLS",
    "lat": 35.6751039,
    "lng": 139.7748058,
    "rating": 4.4,
    "reviews": 0,
    "tags": [
      "specialty"
    ],
    "website": "https://www.tateda-coffee.jp/",
    "phone": "",
    "instagram": "",
    "category": "",
    "hours": {},
    "photos": [],
    "payment": [],
    "services": []
  },
  {
    "id": 79,
    "name": "暮らしと珈琲 東京 LIFE＆COFFEE Tokyo",
    "pref": "東京都",
    "city": "台東区",
    "address": "〒111-0052 東京都台東区柳橋１丁目１７−７",
    "lat": 35.6970144,
    "lng": 139.7886671,
    "rating": 4.9,
    "reviews": 0,
    "tags": [
      "cafe"
    ],
    "website": "https://tostinocoffee.com/",
    "phone": "03-4296-0757",
    "instagram": "",
    "category": "",
    "hours": {},
    "photos": [],
    "payment": [],
    "services": []
  },
  {
    "id": 80,
    "name": "ラマーノ",
    "pref": "東京都",
    "city": "西東京市",
    "address": "〒202-0014 東京都西東京市富士町４丁目９−１３ ラ・マーノ",
    "lat": 35.730099,
    "lng": 139.567032,
    "rating": 4.5,
    "reviews": 0,
    "tags": [
      "cafe"
    ],
    "website": "http://www.lamano-coffee.com/",
    "phone": "042-439-5600",
    "instagram": "",
    "category": "",
    "hours": {},
    "photos": [],
    "payment": [],
    "services": []
  },
  {
    "id": 81,
    "name": "Tokyo Coffee Lab.",
    "pref": "東京都",
    "city": "世田谷区",
    "address": "〒154-0002 東京都世田谷区下馬２丁目２９−７",
    "lat": 35.6432538,
    "lng": 139.6796581,
    "rating": 4.6,
    "reviews": 0,
    "tags": [
      "cafe"
    ],
    "website": "https://tokyocoffeelab.com/",
    "phone": "03-6804-0711",
    "instagram": "",
    "category": "",
    "hours": {},
    "photos": [],
    "payment": [],
    "services": []
  },
  {
    "id": 82,
    "name": "横山コーヒー店",
    "pref": "東京都",
    "city": "港区浜松町",
    "address": "〒105-0013 東京都港区浜松町２丁目１−８",
    "lat": 35.6558836,
    "lng": 139.7549406,
    "rating": 4.6,
    "reviews": 0,
    "tags": [
      "cafe"
    ],
    "website": "",
    "phone": "03-3431-2449",
    "instagram": "",
    "category": "",
    "hours": {},
    "photos": [],
    "payment": [],
    "services": []
  },
  {
    "id": 83,
    "name": "コーヒーロースト ドルチェ・バッハ",
    "pref": "東京都",
    "city": "品川区",
    "address": "〒141-0033 東京都品川区西品川２丁目４−１０",
    "lat": 35.6139803,
    "lng": 139.7281711,
    "rating": 4.8,
    "reviews": 0,
    "tags": [
      "cafe"
    ],
    "website": "",
    "phone": "03-6417-9895",
    "instagram": "",
    "category": "",
    "hours": {},
    "photos": [],
    "payment": [],
    "services": []
  },
  {
    "id": 84,
    "name": "神楽坂珈琲焙煎所",
    "pref": "東京都",
    "city": "文京区",
    "address": "〒112-0014 東京都文京区関口１丁目３−５ ロジビル1F",
    "lat": 35.7076733,
    "lng": 139.7326896,
    "rating": 4.1,
    "reviews": 0,
    "tags": [
      "specialty"
    ],
    "website": "https://kagurazakacoffee.com/",
    "phone": "03-5946-8191",
    "instagram": "",
    "category": "",
    "hours": {},
    "photos": [],
    "payment": [],
    "services": []
  },
  {
    "id": 85,
    "name": "コーヒー豆専門店Cotori",
    "pref": "東京都",
    "city": "杉並区",
    "address": "〒166-0003 東京都杉並区高円寺南２丁目２２−１０",
    "lat": 35.7017838,
    "lng": 139.6477789,
    "rating": 4.6,
    "reviews": 0,
    "tags": [
      "cafe"
    ],
    "website": "https://www.instagram.com/coffee.cotori/?locale=%E6%89%BE%E4%BA%BA%E5%81%9A%E5%81%87%E7%9A%84%E9%A9%AC%E6%9D%A5%E8%A5%BF%E4%BA%9A%E5%9B%BD%E5%A4%96%E6%88%90%E7%BB%A9%E5%8D%95%E8%81%94%E4%BF%A1%2BTG%2F%E9%A3%9E%E6%9C%BA%3A%40buth2788%7DgU7OS%3F%3F%3F%3F%D2%BD%D4%BA%3F%3F%3F%3F%D6%A4%3F%3FxRvPt",
    "phone": "03-6383-2837",
    "instagram": "",
    "category": "",
    "hours": {},
    "photos": [],
    "payment": [],
    "services": []
  },
  {
    "id": 86,
    "name": "豆虎 青山焙煎所",
    "pref": "東京都",
    "city": "渋谷区",
    "address": "〒150-0002 東京都渋谷区渋谷１丁目１−１０ ニューハイツ青山 104",
    "lat": 35.6609611,
    "lng": 139.7067141,
    "rating": 4.7,
    "reviews": 0,
    "tags": [
      "specialty"
    ],
    "website": "https://www.mametora.jp/",
    "phone": "03-6450-5512",
    "instagram": "",
    "category": "",
    "hours": {},
    "photos": [],
    "payment": [],
    "services": []
  },
  {
    "id": 87,
    "name": "Pharos Coffee Jimbocho",
    "pref": "東京都",
    "city": "千代田区",
    "address": "〒101-0051 東京都千代田区神田神保町１丁目２５−４",
    "lat": 35.6949579,
    "lng": 139.7605297,
    "rating": 4.5,
    "reviews": 0,
    "tags": [
      "cafe"
    ],
    "website": "https://pharoscoffee.com/",
    "phone": "",
    "instagram": "",
    "category": "",
    "hours": {},
    "photos": [],
    "payment": [],
    "services": []
  },
  {
    "id": 88,
    "name": "TORIBA COFFEE ROASTERS",
    "pref": "東京都",
    "city": "台東区",
    "address": "〒111-0053 東京都台東区浅草橋２丁目２９−１２",
    "lat": 35.6995496,
    "lng": 139.7874252,
    "rating": 5.0,
    "reviews": 0,
    "tags": [
      "specialty"
    ],
    "website": "",
    "phone": "03-6826-2014",
    "instagram": "",
    "category": "",
    "hours": {},
    "photos": [],
    "payment": [],
    "services": []
  },
  {
    "id": 89,
    "name": "入谷珈琲豆店",
    "pref": "東京都",
    "city": "台東区",
    "address": "〒110-0013 東京都台東区入谷１丁目１９−６",
    "lat": 35.7211647,
    "lng": 139.7857241,
    "rating": 4.7,
    "reviews": 0,
    "tags": [
      "cafe"
    ],
    "website": "https://iriyacoffee.shopinfo.jp/",
    "phone": "03-6876-4007",
    "instagram": "",
    "category": "",
    "hours": {},
    "photos": [],
    "payment": [],
    "services": []
  },
  {
    "id": 90,
    "name": "ドッセグラオン（Doce grão）",
    "pref": "東京都",
    "city": "調布市",
    "address": "〒182-0021 東京都調布市調布ケ丘３丁目13−１６",
    "lat": 35.6569151,
    "lng": 139.5503036,
    "rating": 4.9,
    "reviews": 0,
    "tags": [
      "cafe"
    ],
    "website": "https://www.instagram.com/docegrao_tokyo",
    "phone": "",
    "instagram": "",
    "category": "",
    "hours": {},
    "photos": [],
    "payment": [],
    "services": []
  },
  {
    "id": 91,
    "name": "自家焙煎 珈琲庵",
    "pref": "東京都",
    "city": "文京区",
    "address": "〒113-0033 東京都文京区本郷４丁目２５−１１ メゾンベリテ 1階",
    "lat": 35.7111928,
    "lng": 139.7535221,
    "rating": null,
    "reviews": 0,
    "tags": [
      "specialty",
      "cafe"
    ],
    "website": "https://www.instagram.com/coffeeann.2005/?hl=ja",
    "phone": "03-5802-4810",
    "instagram": "",
    "category": "",
    "hours": {},
    "photos": [],
    "payment": [],
    "services": []
  },
  {
    "id": 92,
    "name": "豆虎 神保町焙煎所",
    "pref": "東京都",
    "city": "千代田区",
    "address": "〒101-0051 東京都千代田区神田神保町１丁目４",
    "lat": 35.6961651,
    "lng": 139.7600326,
    "rating": 4.5,
    "reviews": 0,
    "tags": [
      "specialty"
    ],
    "website": "https://www.mametora.jp/shopinfo",
    "phone": "03-6275-0589",
    "instagram": "",
    "category": "",
    "hours": {},
    "photos": [],
    "payment": [],
    "services": []
  },
  {
    "id": 93,
    "name": "権蔵焙煎所 GONZO Cafe＆Beans",
    "pref": "東京都",
    "city": "練馬区",
    "address": "〒178-0063 東京都練馬区東大泉７丁目３８−２９ 108",
    "lat": 35.74704,
    "lng": 139.5813252,
    "rating": 4.6,
    "reviews": 0,
    "tags": [
      "specialty",
      "cafe"
    ],
    "website": "https://gonzocb.base.shop/",
    "phone": "03-5935-9094",
    "instagram": "",
    "category": "",
    "hours": {},
    "photos": [],
    "payment": [],
    "services": []
  },
  {
    "id": 94,
    "name": "ほんとうにおいしいコーヒー",
    "pref": "東京都",
    "city": "江東区",
    "address": "〒135-0032 東京都江東区福住１丁目５−１４",
    "lat": 35.6758066,
    "lng": 139.7921818,
    "rating": 4.3,
    "reviews": 0,
    "tags": [
      "cafe"
    ],
    "website": "http://oishiicoffee.jp/",
    "phone": "",
    "instagram": "",
    "category": "",
    "hours": {},
    "photos": [],
    "payment": [],
    "services": []
  },
  {
    "id": 95,
    "name": "OBSCURA COFFEE ROASTERS Home",
    "pref": "東京都",
    "city": "世田谷区",
    "address": "〒154-0024 東京都世田谷区三軒茶屋１丁目３６−１０",
    "lat": 35.6429737,
    "lng": 139.671294,
    "rating": 4.0,
    "reviews": 0,
    "tags": [
      "specialty"
    ],
    "website": "https://obscura-coffee.com/",
    "phone": "03-5432-9188",
    "instagram": "",
    "category": "",
    "hours": {},
    "photos": [],
    "payment": [],
    "services": []
  },
  {
    "id": 96,
    "name": "TARO’S COFFEE ROASTERY",
    "pref": "東京都",
    "city": "立川市",
    "address": "〒190-0012 東京都立川市曙町２丁目２５−２",
    "lat": 35.7001615,
    "lng": 139.4186863,
    "rating": null,
    "reviews": 0,
    "tags": [
      "specialty"
    ],
    "website": "",
    "phone": "090-5206-6911",
    "instagram": "",
    "category": "",
    "hours": {},
    "photos": [],
    "payment": [],
    "services": []
  },
  {
    "id": 97,
    "name": "GOOD COFFEE FARMS Cafe & Bar",
    "pref": "東京都",
    "city": "中央区",
    "address": "〒103-0027 東京都中央区日本橋３丁目１−３ 日本橋さくらビル 1F",
    "lat": 35.6810778,
    "lng": 139.771698,
    "rating": 4.6,
    "reviews": 0,
    "tags": [
      "cafe"
    ],
    "website": "http://www.goodcoffeefarms.com/",
    "phone": "070-4797-4932",
    "instagram": "",
    "category": "",
    "hours": {},
    "photos": [],
    "payment": [],
    "services": []
  },
  {
    "id": 98,
    "name": "Coffee Roast & The Best 千歳船橋",
    "pref": "東京都",
    "city": "世田谷区",
    "address": "〒156-0054 東京都世田谷区桜丘２丁目２４−１９ コーポまつば 1階",
    "lat": 35.6455501,
    "lng": 139.6230545,
    "rating": 4.7,
    "reviews": 0,
    "tags": [
      "cafe"
    ],
    "website": "https://www.instagram.com/coffee_ojisan/?hl=ja",
    "phone": "03-6413-1908",
    "instagram": "",
    "category": "",
    "hours": {},
    "photos": [],
    "payment": [],
    "services": []
  },
  {
    "id": 99,
    "name": "SCHOLE COFFEE ROASTER",
    "pref": "東京都",
    "city": "世田谷区",
    "address": "〒154-0005 東京都世田谷区三宿２丁目２７−４０ SCHOLE COFFEE ROASTER",
    "lat": 35.6512522,
    "lng": 139.6748241,
    "rating": 4.8,
    "reviews": 0,
    "tags": [
      "specialty"
    ],
    "website": "https://shop.scholecoffee.com/",
    "phone": "070-9152-9280",
    "instagram": "",
    "category": "",
    "hours": {},
    "photos": [],
    "payment": [],
    "services": []
  },
  {
    "id": 100,
    "name": "KOGUMACOFFEE コグマコーヒー",
    "pref": "東京都",
    "city": "立川市",
    "address": "〒190-0023 東京都立川市柴崎町３丁目５−９ 伊藤ビル 101",
    "lat": 35.6959601,
    "lng": 139.4144179,
    "rating": 4.5,
    "reviews": 0,
    "tags": [
      "cafe"
    ],
    "website": "https://kogumayacoffee.stores.jp/",
    "phone": "",
    "instagram": "",
    "category": "",
    "hours": {},
    "photos": [],
    "payment": [],
    "services": []
  },
  {
    "id": 101,
    "name": "THE MIDFLOW coffee roast",
    "pref": "東京都",
    "city": "国立市",
    "address": "〒186-0004 東京都国立市中２丁目２−１１ センテ国立 1階南",
    "lat": 35.6957818,
    "lng": 139.4410501,
    "rating": null,
    "reviews": 0,
    "tags": [
      "cafe"
    ],
    "website": "https://www.themidflow-coffee.jp/",
    "phone": "",
    "instagram": "",
    "category": "",
    "hours": {},
    "photos": [],
    "payment": [],
    "services": []
  },
  {
    "id": 102,
    "name": "EBONY COFFEE",
    "pref": "東京都",
    "city": "世田谷区",
    "address": "〒158-0083 東京都世田谷区奥沢６丁目２８−４ ワイズニール自由ケ丘 1F",
    "lat": 35.605272,
    "lng": 139.6641134,
    "rating": 4.5,
    "reviews": 0,
    "tags": [
      "cafe"
    ],
    "website": "https://ebonycoffee.tokyo/",
    "phone": "",
    "instagram": "",
    "category": "",
    "hours": {},
    "photos": [],
    "payment": [],
    "services": []
  },
  {
    "id": 103,
    "name": "8BIRDS COFFEE & ROASTER",
    "pref": "東京都",
    "city": "日野市",
    "address": "〒191-0022 東京都日野市新井７３０−２ MHビル 101",
    "lat": 35.6639261,
    "lng": 139.4173869,
    "rating": null,
    "reviews": 0,
    "tags": [
      "specialty",
      "cafe"
    ],
    "website": "https://www.instagram.com/8birdscoffee/",
    "phone": "",
    "instagram": "",
    "category": "",
    "hours": {},
    "photos": [],
    "payment": [],
    "services": []
  },
  {
    "id": 104,
    "name": "GLITCH COFFEE&ROASTERS",
    "pref": "東京都",
    "city": "千代田区",
    "address": "〒101-0054 東京都千代田区神田錦町３丁目１６ １階",
    "lat": 35.6937428,
    "lng": 139.7613047,
    "rating": 4.4,
    "reviews": 0,
    "tags": [
      "specialty"
    ],
    "website": "https://glitchcoffee.com/",
    "phone": "03-5244-5458",
    "instagram": "",
    "category": "",
    "hours": {},
    "photos": [],
    "payment": [],
    "services": []
  },
  {
    "id": 105,
    "name": "BERTH COFFEE ROASTERY \"Haru\"",
    "pref": "東京都",
    "city": "墨田区",
    "address": "〒130-0003 東京都墨田区横川２丁目７−２",
    "lat": 35.7037292,
    "lng": 139.8115155,
    "rating": 4.6,
    "reviews": 0,
    "tags": [
      "specialty"
    ],
    "website": "https://backpackersjapan.co.jp/berthcoffee/",
    "phone": "",
    "instagram": "",
    "category": "",
    "hours": {},
    "photos": [],
    "payment": [],
    "services": []
  },
  {
    "id": 106,
    "name": "カフェカホン",
    "pref": "東京都",
    "city": "調布市",
    "address": "〒182-0003 東京都調布市若葉町２丁目１−３ ハイム川原 1A",
    "lat": 35.659272,
    "lng": 139.585818,
    "rating": 4.3,
    "reviews": 0,
    "tags": [
      "cafe"
    ],
    "website": "https://cafecajon.jp/",
    "phone": "03-6909-1225",
    "instagram": "",
    "category": "",
    "hours": {},
    "photos": [],
    "payment": [],
    "services": []
  },
  {
    "id": 107,
    "name": "スペシャルティコーヒー駒沢Coffee&Dogs",
    "pref": "東京都",
    "city": "目黒区",
    "address": "〒152-0021 東京都目黒区東が丘２丁目１２−１３",
    "lat": 35.6295992,
    "lng": 139.6629563,
    "rating": 4.9,
    "reviews": 0,
    "tags": [
      "specialty"
    ],
    "website": "https://coffeedogs.base.shop/",
    "phone": "090-2407-3242",
    "instagram": "",
    "category": "",
    "hours": {},
    "photos": [],
    "payment": [],
    "services": []
  },
  {
    "id": 108,
    "name": "WAVY COFFEE ROASTERS",
    "pref": "東京都",
    "city": "豊島区",
    "address": "〒170-0011 東京都豊島区池袋本町４丁目２−４ 1F",
    "lat": 35.7418102,
    "lng": 139.7161158,
    "rating": 4.4,
    "reviews": 0,
    "tags": [
      "specialty"
    ],
    "website": "https://shop.wavycoffee.jp/",
    "phone": "",
    "instagram": "",
    "category": "",
    "hours": {},
    "photos": [],
    "payment": [],
    "services": []
  },
  {
    "id": 109,
    "name": "コーヒーローストデスモ",
    "pref": "東京都",
    "city": "杉並区",
    "address": "〒166-0001 東京都杉並区阿佐谷北４丁目９−２０",
    "lat": 35.711738,
    "lng": 139.6349363,
    "rating": 4.3,
    "reviews": 0,
    "tags": [
      "cafe"
    ],
    "website": "https://www.crdesmo.com/",
    "phone": "03-5356-7056",
    "instagram": "",
    "category": "",
    "hours": {},
    "photos": [],
    "payment": [],
    "services": []
  },
  {
    "id": 110,
    "name": "OBSCURA COFFEE ROASTERS Front",
    "pref": "東京都",
    "city": "渋谷区",
    "address": "〒150-0043 東京都渋谷区道玄坂１丁目１２−１ B1F",
    "lat": 35.6592112,
    "lng": 139.7006372,
    "rating": 4.4,
    "reviews": 0,
    "tags": [
      "specialty"
    ],
    "website": "https://shop.obscura-coffee.com/",
    "phone": "03-3477-4381",
    "instagram": "",
    "category": "",
    "hours": {},
    "photos": [],
    "payment": [],
    "services": []
  },
  {
    "id": 111,
    "name": "IRON COFFEE ROASTERY",
    "pref": "東京都",
    "city": "世田谷区",
    "address": "〒156-0055 東京都世田谷区船橋１丁目３８−１０ ロータス千歳船橋",
    "lat": 35.6484863,
    "lng": 139.6181454,
    "rating": 4.5,
    "reviews": 0,
    "tags": [
      "specialty",
      "cafe"
    ],
    "website": "https://www.instagram.com/p/CjNINHQPId7/",
    "phone": "",
    "instagram": "",
    "category": "",
    "hours": {},
    "photos": [],
    "payment": [],
    "services": []
  },
  {
    "id": 112,
    "name": "CROSS珈琲豆店",
    "pref": "東京都",
    "city": "大田区",
    "address": "〒144-0055 東京都大田区仲六郷２丁目１８−１１",
    "lat": 35.5507245,
    "lng": 139.7136616,
    "rating": 4.6,
    "reviews": 0,
    "tags": [
      "cafe"
    ],
    "website": "https://cross-coffee-beans.jp/",
    "phone": "",
    "instagram": "",
    "category": "",
    "hours": {},
    "photos": [],
    "payment": [],
    "services": []
  },
  {
    "id": 113,
    "name": "coffee trill",
    "pref": "東京都",
    "city": "文京区",
    "address": "〒112-0013 東京都文京区音羽２丁目１−９",
    "lat": 35.7180665,
    "lng": 139.7283256,
    "rating": null,
    "reviews": 0,
    "tags": [
      "cafe"
    ],
    "website": "https://coffeetrill.com/",
    "phone": "",
    "instagram": "",
    "category": "",
    "hours": {},
    "photos": [],
    "payment": [],
    "services": []
  },
  {
    "id": 114,
    "name": "パオコーヒー",
    "pref": "東京都",
    "city": "調布市",
    "address": "〒182-0006 東京都調布市西つつじケ丘３丁目15−２",
    "lat": 35.6576996,
    "lng": 139.5717765,
    "rating": 4.4,
    "reviews": 0,
    "tags": [
      "cafe"
    ],
    "website": "http://www.paocoffee.co.jp/",
    "phone": "042-488-2850",
    "instagram": "",
    "category": "",
    "hours": {},
    "photos": [],
    "payment": [],
    "services": []
  },
  {
    "id": 115,
    "name": "G☆P COFFEE ROASTER",
    "pref": "東京都",
    "city": "渋谷区",
    "address": "〒151-0071 東京都渋谷区本町２丁目２８−４",
    "lat": 35.683563,
    "lng": 139.6815295,
    "rating": 4.7,
    "reviews": 0,
    "tags": [
      "specialty",
      "cafe"
    ],
    "website": "https://instagram.com/gp_coffee_roaster/",
    "phone": "",
    "instagram": "",
    "category": "",
    "hours": {},
    "photos": [],
    "payment": [],
    "services": []
  },
  {
    "id": 116,
    "name": "VANCOUVER COFFEE ROASTER",
    "pref": "東京都",
    "city": "あきる野市",
    "address": "〒190-0173 東京都あきる野市戸倉５５７−１",
    "lat": 35.7299403,
    "lng": 139.2024286,
    "rating": null,
    "reviews": 0,
    "tags": [
      "specialty"
    ],
    "website": "https://www.vancouvercoffee.jp/",
    "phone": "",
    "instagram": "",
    "category": "",
    "hours": {},
    "photos": [],
    "payment": [],
    "services": []
  },
  {
    "id": 117,
    "name": "ヒデコーヒービーンズストア",
    "pref": "東京都",
    "city": "江東区",
    "address": "〒135-0062 東京都江東区東雲１丁目２−１",
    "lat": 35.6490509,
    "lng": 139.8006167,
    "rating": null,
    "reviews": 0,
    "tags": [
      "cafe"
    ],
    "website": "http://www.hidecoffee.com/",
    "phone": "03-3533-1010",
    "instagram": "",
    "category": "",
    "hours": {},
    "photos": [],
    "payment": [],
    "services": []
  },
  {
    "id": 118,
    "name": "maruca coffee",
    "pref": "東京都",
    "city": "足立区",
    "address": "〒121-0816 東京都足立区梅島１丁目２３−３",
    "lat": 35.7719862,
    "lng": 139.8013983,
    "rating": 4.6,
    "reviews": 0,
    "tags": [
      "cafe"
    ],
    "website": "https://marucacoffee.com/",
    "phone": "",
    "instagram": "",
    "category": "",
    "hours": {},
    "photos": [],
    "payment": [],
    "services": []
  },
  {
    "id": 119,
    "name": "ENgrave coffee roasters",
    "pref": "東京都",
    "city": "世田谷区",
    "address": "〒156-0051 東京都世田谷区宮坂１丁目２５−２ 1F",
    "lat": 35.6481452,
    "lng": 139.6447917,
    "rating": 4.8,
    "reviews": 0,
    "tags": [
      "specialty",
      "cafe"
    ],
    "website": "https://instagram.com/engravecoffeeroasters?igshid=NTc4MTIwNjQ2YQ==",
    "phone": "",
    "instagram": "",
    "category": "",
    "hours": {},
    "photos": [],
    "payment": [],
    "services": []
  },
  {
    "id": 120,
    "name": "Café & Roaster 100色のコーヒー豆",
    "pref": "東京都",
    "city": "文京区",
    "address": "〒112-0012 東京都文京区大塚４丁目２−１１ 蜷川ビル 1F101",
    "lat": 35.7241096,
    "lng": 139.7365025,
    "rating": 4.8,
    "reviews": 0,
    "tags": [
      "specialty",
      "cafe"
    ],
    "website": "https://www.instagram.com/100irocoffee/",
    "phone": "03-6902-9332",
    "instagram": "",
    "category": "",
    "hours": {},
    "photos": [],
    "payment": [],
    "services": []
  },
  {
    "id": 121,
    "name": "デレクトコーヒーロースターズ",
    "pref": "東京都",
    "city": "渋谷区",
    "address": "〒151-0062 東京都渋谷区元代々木町１０−５ 101",
    "lat": 35.670268,
    "lng": 139.6841351,
    "rating": 4.5,
    "reviews": 0,
    "tags": [
      "specialty"
    ],
    "website": "https://www.facebook.com/delectocoffeeroasters/",
    "phone": "03-5453-1222",
    "instagram": "",
    "category": "",
    "hours": {},
    "photos": [],
    "payment": [],
    "services": []
  },
  {
    "id": 122,
    "name": "ジロー珈琲焙煎所",
    "pref": "東京都",
    "city": "板橋区",
    "address": "〒173-0004 東京都板橋区板橋４丁目４６−４",
    "lat": 35.7526052,
    "lng": 139.7213628,
    "rating": 5.0,
    "reviews": 0,
    "tags": [
      "specialty",
      "cafe"
    ],
    "website": "https://instagram.com/jiloha1228?utm_medium=copy_link",
    "phone": "",
    "instagram": "",
    "category": "",
    "hours": {},
    "photos": [],
    "payment": [],
    "services": []
  },
  {
    "id": 123,
    "name": "MÖWE COFFEE ROASTERS",
    "pref": "東京都",
    "city": "杉並区",
    "address": "〒166-0002 東京都杉並区高円寺北２丁目１０−６ ブルーバードビル 1階B号室",
    "lat": 35.7064457,
    "lng": 139.6513581,
    "rating": 4.3,
    "reviews": 0,
    "tags": [
      "specialty"
    ],
    "website": "https://moewecoffee.buyshop.jp/",
    "phone": "03-6265-5930",
    "instagram": "",
    "category": "",
    "hours": {},
    "photos": [],
    "payment": [],
    "services": []
  },
  {
    "id": 124,
    "name": "nano-coffeeroaster",
    "pref": "東京都",
    "city": "台東区",
    "address": "〒111-0053 東京都台東区浅草橋１丁目１７−４",
    "lat": 35.6973235,
    "lng": 139.7850823,
    "rating": 4.9,
    "reviews": 0,
    "tags": [
      "specialty"
    ],
    "website": "https://nanoroaster.handcrafted.jp/",
    "phone": "",
    "instagram": "",
    "category": "",
    "hours": {},
    "photos": [],
    "payment": [],
    "services": []
  },
  {
    "id": 125,
    "name": "Leaves Coffee Roasters",
    "pref": "東京都",
    "city": "墨田区",
    "address": "〒130-0004 東京都墨田区本所１丁目８−８",
    "lat": 35.7027051,
    "lng": 139.7978326,
    "rating": 4.5,
    "reviews": 0,
    "tags": [
      "specialty"
    ],
    "website": "https://leavescoffee.jp/",
    "phone": "03-5637-8718",
    "instagram": "",
    "category": "",
    "hours": {},
    "photos": [],
    "payment": [],
    "services": []
  },
  {
    "id": 126,
    "name": "PASSAGE COFFEE SOSHIGAYA",
    "pref": "東京都",
    "city": "世田谷区",
    "address": "〒157-0072 東京都世田谷区祖師谷４丁目２５−２２ 千里ビル 1F",
    "lat": 35.6495644,
    "lng": 139.6083037,
    "rating": 4.2,
    "reviews": 0,
    "tags": [
      "cafe"
    ],
    "website": "https://www.instagram.com/passage_soshigaya/",
    "phone": "03-6411-9316",
    "instagram": "",
    "category": "",
    "hours": {},
    "photos": [],
    "payment": [],
    "services": []
  },
  {
    "id": 127,
    "name": "Tiphareth Coffee Roastery （ティファレスコーヒーロースタリー）四ツ谷",
    "pref": "東京都",
    "city": "新宿区",
    "address": "〒160-0004 東京都新宿区四谷２丁目１１−１８ 磯合ビル 1F",
    "lat": 35.687307,
    "lng": 139.7246193,
    "rating": 4.7,
    "reviews": 0,
    "tags": [
      "specialty"
    ],
    "website": "https://x.gd/8MdXP",
    "phone": "",
    "instagram": "",
    "category": "",
    "hours": {},
    "photos": [],
    "payment": [],
    "services": []
  },
  {
    "id": 128,
    "name": "BE A GOOD NEIGHBOR COFFEE KIOSK ROASTER",
    "pref": "東京都",
    "city": "渋谷区",
    "address": "〒151-0051 東京都渋谷区千駄ケ谷５丁目６−７ トーエイハイツ",
    "lat": 35.6818036,
    "lng": 139.7063419,
    "rating": 4.9,
    "reviews": 0,
    "tags": [
      "specialty",
      "cafe"
    ],
    "website": "https://www.instagram.com/coffeekioskroaster/",
    "phone": "03-6274-8411",
    "instagram": "",
    "category": "",
    "hours": {},
    "photos": [],
    "payment": [],
    "services": []
  },
  {
    "id": 129,
    "name": "クロッシング コーヒー ロースタリー",
    "pref": "東京都",
    "city": "目黒区",
    "address": "〒152-0035 東京都目黒区自由が丘１丁目１４−１ Ｇタワー 1F",
    "lat": 35.609674,
    "lng": 139.670147,
    "rating": 4.1,
    "reviews": 0,
    "tags": [
      "specialty"
    ],
    "website": "http://www.crossingcoffeeroastery.com/",
    "phone": "03-5726-9988",
    "instagram": "",
    "category": "",
    "hours": {},
    "photos": [],
    "payment": [],
    "services": []
  },
  {
    "id": 130,
    "name": "THE ROASTERY by NOZY COFFEE",
    "pref": "東京都",
    "city": "渋谷区",
    "address": "〒150-0001 東京都渋谷区神宮前５丁目１７−１３ リヴェール神宮前",
    "lat": 35.6655724,
    "lng": 139.7047658,
    "rating": 4.3,
    "reviews": 0,
    "tags": [
      "specialty"
    ],
    "website": "https://www.tysons.jp/roastery/",
    "phone": "03-6450-5755",
    "instagram": "",
    "category": "",
    "hours": {},
    "photos": [],
    "payment": [],
    "services": []
  },
  {
    "id": 131,
    "name": "TSUBUYORI",
    "pref": "東京都",
    "city": "中央区",
    "address": "〒103-0007 東京都中央区日本橋浜町２丁目４８−１",
    "lat": 35.6865806,
    "lng": 139.7886596,
    "rating": 4.3,
    "reviews": 0,
    "tags": [
      "cafe"
    ],
    "website": "",
    "phone": "",
    "instagram": "",
    "category": "",
    "hours": {},
    "photos": [],
    "payment": [],
    "services": []
  },
  {
    "id": 132,
    "name": "T&T Coffee Roastery",
    "pref": "東京都",
    "city": "杉並区",
    "address": "〒167-0032 東京都杉並区天沼３丁目６−１９ 1階",
    "lat": 35.7075865,
    "lng": 139.6195297,
    "rating": 4.9,
    "reviews": 0,
    "tags": [
      "specialty"
    ],
    "website": "https://t0t6roastery.buyshop.jp/",
    "phone": "03-4362-9845",
    "instagram": "",
    "category": "",
    "hours": {},
    "photos": [],
    "payment": [],
    "services": []
  },
  {
    "id": 133,
    "name": "Raw Sugar Roast",
    "pref": "東京都",
    "city": "世田谷区",
    "address": "〒156-0051 東京都世田谷区宮坂３丁目９−４",
    "lat": 35.6526653,
    "lng": 139.6379729,
    "rating": null,
    "reviews": 0,
    "tags": [
      "cafe"
    ],
    "website": "https://raw-sugar-roast.myshopify.com/",
    "phone": "03-6413-5057",
    "instagram": "",
    "category": "",
    "hours": {},
    "photos": [],
    "payment": [],
    "services": []
  },
  {
    "id": 134,
    "name": "COFFEESTAND kōenmae",
    "pref": "東京都",
    "city": "墨田区",
    "address": "〒130-0005 東京都墨田区東駒形４丁目１０−５",
    "lat": 35.7065289,
    "lng": 139.8062839,
    "rating": 4.7,
    "reviews": 0,
    "tags": [
      "cafe"
    ],
    "website": "https://instagram.com/coffeestand_koenmae?igshid=MzRlODBiNWFlZA==",
    "phone": "",
    "instagram": "",
    "category": "",
    "hours": {},
    "photos": [],
    "payment": [],
    "services": []
  },
  {
    "id": 135,
    "name": "ICHIYOU coffee roastery",
    "pref": "東京都",
    "city": "国立市",
    "address": "〒186-0003 東京都国立市富士見台４丁目５３−８",
    "lat": 35.6900214,
    "lng": 139.4320212,
    "rating": null,
    "reviews": 0,
    "tags": [
      "specialty"
    ],
    "website": "http://www17.plala.or.jp/ICHIYOUcoffee/index.html",
    "phone": "090-1655-9422",
    "instagram": "",
    "category": "",
    "hours": {},
    "photos": [],
    "payment": [],
    "services": []
  },
  {
    "id": 136,
    "name": "マメーズ 焙煎工房",
    "pref": "東京都",
    "city": "大田区",
    "address": "〒144-0052 東京都大田区蒲田１丁目１８−５ リバーストーン",
    "lat": 35.5653218,
    "lng": 139.7220367,
    "rating": 4.4,
    "reviews": 0,
    "tags": [
      "specialty"
    ],
    "website": "http://www.mames.jp/",
    "phone": "03-5710-7601",
    "instagram": "",
    "category": "",
    "hours": {},
    "photos": [],
    "payment": [],
    "services": []
  },
  {
    "id": 137,
    "name": "SINGLE O RYOGOKU ROASTWORKS/CAFE",
    "pref": "東京都",
    "city": "墨田区",
    "address": "〒130-0014 東京都墨田区亀沢３丁目２１−５",
    "lat": 35.6979855,
    "lng": 139.8032563,
    "rating": 4.6,
    "reviews": 0,
    "tags": [
      "cafe"
    ],
    "website": "http://singleo.jp/",
    "phone": "03-6240-4455",
    "instagram": "",
    "category": "",
    "hours": {},
    "photos": [],
    "payment": [],
    "services": []
  },
  {
    "id": 138,
    "name": "TORIBA COFFEE TOKYO",
    "pref": "東京都",
    "city": "中央区",
    "address": "〒104-0028 東京都中央区八重洲２丁目１−１ YANMAR TOKYO B1F",
    "lat": 35.679817,
    "lng": 139.7694012,
    "rating": 4.2,
    "reviews": 0,
    "tags": [
      "online"
    ],
    "website": "https://www.toribacoffee-online.com/",
    "phone": "03-6824-1541",
    "instagram": "",
    "category": "",
    "hours": {},
    "photos": [],
    "payment": [],
    "services": []
  },
  {
    "id": 139,
    "name": "Cherry Core Coffee Roaster",
    "pref": "東京都",
    "city": "世田谷区",
    "address": "〒158-0097 東京都世田谷区用賀２丁目２８−１６ コンフォール用賀 101",
    "lat": 35.6250317,
    "lng": 139.6371396,
    "rating": 3.7,
    "reviews": 0,
    "tags": [
      "specialty"
    ],
    "website": "https://cccr-tokyo.jp/",
    "phone": "03-5797-9753",
    "instagram": "",
    "category": "",
    "hours": {},
    "photos": [],
    "payment": [],
    "services": []
  },
  {
    "id": 140,
    "name": "COFFEE AMP THE ROASTER",
    "pref": "東京都",
    "city": "杉並区",
    "address": "〒166-0003 東京都杉並区高円寺南２丁目２０−１３",
    "lat": 35.6992106,
    "lng": 139.6475442,
    "rating": 4.4,
    "reviews": 0,
    "tags": [
      "specialty"
    ],
    "website": "http://www.coffee-amp.com/",
    "phone": "03-5929-9587",
    "instagram": "",
    "category": "",
    "hours": {},
    "photos": [],
    "payment": [],
    "services": []
  },
  {
    "id": 141,
    "name": "AIR DRIP COFFEE SHIBUYA",
    "pref": "東京都",
    "city": "渋谷区",
    "address": "〒150-0046 東京都渋谷区松濤１丁目２７−１",
    "lat": 35.659658,
    "lng": 139.6936742,
    "rating": 4.7,
    "reviews": 0,
    "tags": [
      "cafe"
    ],
    "website": "https://airdripcoffee.com/",
    "phone": "03-6804-9373",
    "instagram": "",
    "category": "",
    "hours": {},
    "photos": [],
    "payment": [],
    "services": []
  },
  {
    "id": 142,
    "name": "coffee swamp",
    "pref": "東京都",
    "city": "新宿区",
    "address": "〒160-0023 東京都新宿区西新宿７丁目２１−１２ れんげ荘 105号",
    "lat": 35.6949274,
    "lng": 139.6950661,
    "rating": 4.9,
    "reviews": 0,
    "tags": [
      "cafe"
    ],
    "website": "https://instagram.com/swamp_shinjuku/",
    "phone": "",
    "instagram": "",
    "category": "",
    "hours": {},
    "photos": [],
    "payment": [],
    "services": []
  },
  {
    "id": 143,
    "name": "Sedai Coffee & Roasters",
    "pref": "東京都",
    "city": "渋谷区",
    "address": "〒150-0001 東京都渋谷区神宮前５丁目２９−９ 1F",
    "lat": 35.6642972,
    "lng": 139.7030516,
    "rating": 4.7,
    "reviews": 0,
    "tags": [
      "specialty"
    ],
    "website": "https://sedaicoffee.com/",
    "phone": "",
    "instagram": "",
    "category": "",
    "hours": {},
    "photos": [],
    "payment": [],
    "services": []
  },
  {
    "id": 144,
    "name": "グラーノ",
    "pref": "東京都",
    "city": "目黒区",
    "address": "〒153-0051 東京都目黒区上目黒２丁目１７−１６ 1階",
    "lat": 35.641966,
    "lng": 139.6979038,
    "rating": 4.6,
    "reviews": 0,
    "tags": [
      "cafe"
    ],
    "website": "https://grano-coffee.com/",
    "phone": "03-3719-3594",
    "instagram": "",
    "category": "",
    "hours": {},
    "photos": [],
    "payment": [],
    "services": []
  },
  {
    "id": 145,
    "name": "FEBRUARY COFFEE ROASTERY",
    "pref": "東京都",
    "city": "台東区",
    "address": "〒111-0032 東京都台東区浅草２丁目２８−１８",
    "lat": 35.7159867,
    "lng": 139.795347,
    "rating": 4.7,
    "reviews": 0,
    "tags": [
      "specialty",
      "cafe"
    ],
    "website": "https://www.instagram.com/februarycoffeeroastery/",
    "phone": "03-5830-3799",
    "instagram": "",
    "category": "",
    "hours": {},
    "photos": [],
    "payment": [],
    "services": []
  },
  {
    "id": 146,
    "name": "Acid Coffee Tokyo",
    "pref": "東京都",
    "city": "渋谷区",
    "address": "〒151-0064 東京都渋谷区上原１丁目２９−５ 101",
    "lat": 35.668352,
    "lng": 139.679981,
    "rating": 4.7,
    "reviews": 0,
    "tags": [
      "cafe"
    ],
    "website": "https://instagram.com/acidcoffeetokyo",
    "phone": "",
    "instagram": "",
    "category": "",
    "hours": {},
    "photos": [],
    "payment": [],
    "services": []
  },
  {
    "id": 147,
    "name": "雨の木なコーヒー 吉祥寺本店",
    "pref": "東京都",
    "city": "武蔵野市",
    "address": "〒180-0004 東京都武蔵野市吉祥寺本町３丁目２１−２１番１０号 LaVie吉祥寺 1階",
    "lat": 35.7052367,
    "lng": 139.5691917,
    "rating": null,
    "reviews": 0,
    "tags": [
      "cafe"
    ],
    "website": "https://www.amenokina.jp/",
    "phone": "0422-27-8196",
    "instagram": "",
    "category": "",
    "hours": {},
    "photos": [],
    "payment": [],
    "services": []
  },
  {
    "id": 148,
    "name": "eponym coffee",
    "pref": "東京都",
    "city": "渋谷区",
    "address": "〒151-0071 東京都渋谷区本町４丁目１８−２ 黒田屋ハイツ 1F",
    "lat": 35.6884217,
    "lng": 139.68031,
    "rating": 4.8,
    "reviews": 0,
    "tags": [
      "cafe"
    ],
    "website": "https://instagram.com/eponymcoffee/",
    "phone": "03-6300-5519",
    "instagram": "",
    "category": "",
    "hours": {},
    "photos": [],
    "payment": [],
    "services": []
  },
  {
    "id": 149,
    "name": "CITY COFFEE ROASTERY",
    "pref": "東京都",
    "city": "中野区",
    "address": "〒165-0034 東京都中野区大和町２丁目４４−４",
    "lat": 35.7133997,
    "lng": 139.6490053,
    "rating": 5.0,
    "reviews": 0,
    "tags": [
      "specialty"
    ],
    "website": "http://city-coffee-roastery.square.site/",
    "phone": "03-6383-0545",
    "instagram": "",
    "category": "",
    "hours": {},
    "photos": [],
    "payment": [],
    "services": []
  },
  {
    "id": 150,
    "name": "Lonich,",
    "pref": "東京都",
    "city": "台東区",
    "address": "〒111-0051 東京都台東区蔵前１丁目７−４ Ｋビル 1F",
    "lat": 35.7012377,
    "lng": 139.7895126,
    "rating": 4.9,
    "reviews": 0,
    "tags": [
      "cafe"
    ],
    "website": "https://www.instagram.com/lonich_jp/",
    "phone": "050-3184-3065",
    "instagram": "",
    "category": "",
    "hours": {},
    "photos": [],
    "payment": [],
    "services": []
  },
  {
    "id": 151,
    "name": "THE WORD COFFEE ROASTERS",
    "pref": "東京都",
    "city": "葛飾区",
    "address": "〒124-0022 東京都葛飾区奥戸１丁目１９−３ 斉藤マンション 1B",
    "lat": 35.7290529,
    "lng": 139.8568267,
    "rating": 4.6,
    "reviews": 0,
    "tags": [
      "specialty"
    ],
    "website": "https://thewordcoffee.com/",
    "phone": "03-5654-6245",
    "instagram": "",
    "category": "",
    "hours": {},
    "photos": [],
    "payment": [],
    "services": []
  },
  {
    "id": 152,
    "name": "Tama Coffee Roaster",
    "pref": "東京都",
    "city": "足立区",
    "address": "〒120-0042 東京都足立区千住龍田町１７−８",
    "lat": 35.7529493,
    "lng": 139.7955992,
    "rating": 4.8,
    "reviews": 0,
    "tags": [
      "specialty"
    ],
    "website": "https://www.facebook.com/Tama-Coffee-Roaster-102412251386277/",
    "phone": "",
    "instagram": "",
    "category": "",
    "hours": {},
    "photos": [],
    "payment": [],
    "services": []
  },
  {
    "id": 153,
    "name": "ALUKU COFFEE",
    "pref": "東京都",
    "city": "世田谷区",
    "address": "〒157-0073 東京都世田谷区砧６丁目１８−７ Crisantemo祖師ヶ谷大蔵 1F",
    "lat": 35.6429121,
    "lng": 139.6102653,
    "rating": 4.8,
    "reviews": 0,
    "tags": [
      "cafe"
    ],
    "website": "https://alukucoffee.theshop.jp/",
    "phone": "",
    "instagram": "",
    "category": "",
    "hours": {},
    "photos": [],
    "payment": [],
    "services": []
  },
  {
    "id": 154,
    "name": "ABOUT LIFE COFFEE BREWERS",
    "pref": "東京都",
    "city": "渋谷区",
    "address": "〒150-0043 東京都渋谷区道玄坂１丁目１９−８ 斉丸道玄坂ビル 2F",
    "lat": 35.6567022,
    "lng": 139.6958093,
    "rating": 4.5,
    "reviews": 0,
    "tags": [
      "cafe"
    ],
    "website": "https://onibuscoffee.com/",
    "phone": "03-6809-0751",
    "instagram": "",
    "category": "",
    "hours": {},
    "photos": [],
    "payment": [],
    "services": []
  },
  {
    "id": 155,
    "name": "自家焙煎珈琲 カフェ・タピロス",
    "pref": "東京都",
    "city": "都港区",
    "address": "〒106-0032 東京都港区六本木６丁目８−２８ 宮崎 ビル 2F",
    "lat": 35.6601085,
    "lng": 139.7321266,
    "rating": null,
    "reviews": 0,
    "tags": [
      "specialty",
      "cafe"
    ],
    "website": "https://tapirosu.blog.fc2.com/blog-category-3.html",
    "phone": "03-3479-1302",
    "instagram": "",
    "category": "",
    "hours": {},
    "photos": [],
    "payment": [],
    "services": []
  },
  {
    "id": 156,
    "name": "MKLab 珈琲焙煎所 -Happy Beans-",
    "pref": "東京都",
    "city": "日野市",
    "address": "〒191-0033 東京都日野市百草９９９ 百草団地 2-8 1 棟 ショッピングセンター内 2階 202",
    "lat": 35.6493204,
    "lng": 139.4188915,
    "rating": null,
    "reviews": 0,
    "tags": [
      "specialty"
    ],
    "website": "https://mklabcc.com/",
    "phone": "080-3471-0603",
    "instagram": "",
    "category": "",
    "hours": {},
    "photos": [],
    "payment": [],
    "services": []
  },
  {
    "id": 157,
    "name": "アライズ コーヒー ロースターズ",
    "pref": "東京都",
    "city": "江東区",
    "address": "〒135-0023 東京都江東区平野１丁目１３−８",
    "lat": 35.6783899,
    "lng": 139.8009705,
    "rating": null,
    "reviews": 0,
    "tags": [
      "specialty"
    ],
    "website": "http://arisecoffee.jp/",
    "phone": "03-3643-3601",
    "instagram": "",
    "category": "",
    "hours": {},
    "photos": [],
    "payment": [],
    "services": []
  },
  {
    "id": 158,
    "name": "First Crop Coffee Roastery",
    "pref": "東京都",
    "city": "江東区",
    "address": "〒135-0021 東京都江東区白河２丁目２０−１０",
    "lat": 35.6830125,
    "lng": 139.8027475,
    "rating": null,
    "reviews": 0,
    "tags": [
      "specialty",
      "cafe"
    ],
    "website": "https://www.instagram.com/fccjp.roastery/",
    "phone": "",
    "instagram": "",
    "category": "",
    "hours": {},
    "photos": [],
    "payment": [],
    "services": []
  },
  {
    "id": 159,
    "name": "青空豆店",
    "pref": "東京都",
    "city": "杉並区",
    "address": "〒168-0064 東京都杉並区永福４丁目１０−４",
    "lat": 35.677818,
    "lng": 139.6408628,
    "rating": 4.8,
    "reviews": 0,
    "tags": [
      "cafe"
    ],
    "website": "http://www.aozora-mameten.jp/",
    "phone": "03-6323-3958",
    "instagram": "",
    "category": "",
    "hours": {},
    "photos": [],
    "payment": [],
    "services": []
  },
  {
    "id": 160,
    "name": "nericafe",
    "pref": "東京都",
    "city": "練馬区",
    "address": "〒178-0061 東京都練馬区大泉学園町１丁目１６−１５",
    "lat": 35.7599298,
    "lng": 139.5916706,
    "rating": 4.6,
    "reviews": 0,
    "tags": [
      "cafe"
    ],
    "website": "http://nericafe.com/",
    "phone": "03-5935-8508",
    "instagram": "",
    "category": "",
    "hours": {},
    "photos": [],
    "payment": [],
    "services": []
  },
  {
    "id": 161,
    "name": "カフェ まるき 自家焙煎 Dish feat.Coffee&Tea 表参道 珈琲",
    "pref": "東京都",
    "city": "渋谷区",
    "address": "〒150-0001 東京都渋谷区神宮前５丁目５０−１ 河島ビル 1F 2F",
    "lat": 35.6633064,
    "lng": 139.709786,
    "rating": 4.6,
    "reviews": 0,
    "tags": [
      "specialty",
      "cafe"
    ],
    "website": "https://maruki-ec.com/",
    "phone": "03-6805-0316",
    "instagram": "",
    "category": "",
    "hours": {},
    "photos": [],
    "payment": [],
    "services": []
  },
  {
    "id": 162,
    "name": "自家焙煎珈琲凡",
    "pref": "東京都",
    "city": "新宿区",
    "address": "〒160-0022 東京都新宿区新宿３丁目１７−７",
    "lat": 35.6922491,
    "lng": 139.7029841,
    "rating": 4.8,
    "reviews": 0,
    "tags": [
      "specialty"
    ],
    "website": "",
    "phone": "",
    "instagram": "",
    "category": "",
    "hours": {},
    "photos": [],
    "payment": [],
    "services": []
  },
  {
    "id": 163,
    "name": "自家焙煎 燕コーヒー",
    "pref": "東京都",
    "city": "東村山市",
    "address": "〒189-0001 東京都東村山市秋津町５丁目３８−３",
    "lat": 35.7769245,
    "lng": 139.4900482,
    "rating": 4.9,
    "reviews": 0,
    "tags": [
      "specialty"
    ],
    "website": "",
    "phone": "042-306-2001",
    "instagram": "",
    "category": "",
    "hours": {},
    "photos": [],
    "payment": [],
    "services": []
  },
  {
    "id": 164,
    "name": "こなみ珈琲",
    "pref": "東京都",
    "city": "中央区",
    "address": "〒103-0014 東京都中央区日本橋蛎殻町１丁目３９−２ 東山ビル 1F",
    "lat": 35.683297,
    "lng": 139.784214,
    "rating": 4.6,
    "reviews": 0,
    "tags": [
      "cafe"
    ],
    "website": "https://conamicoffee.com/",
    "phone": "03-6810-8765",
    "instagram": "",
    "category": "",
    "hours": {},
    "photos": [],
    "payment": [],
    "services": []
  },
  {
    "id": 165,
    "name": "ハチコーヒー 祐天寺",
    "pref": "東京都",
    "city": "目黒区",
    "address": "〒153-0052 東京都目黒区祐天寺２丁目４−１",
    "lat": 35.6378322,
    "lng": 139.6929197,
    "rating": 4.8,
    "reviews": 0,
    "tags": [
      "cafe"
    ],
    "website": "https://www.facebook.com/hachicoffee.yutenji/",
    "phone": "03-6312-9246",
    "instagram": "",
    "category": "",
    "hours": {},
    "photos": [],
    "payment": [],
    "services": []
  },
  {
    "id": 166,
    "name": "十一房珈琲店",
    "pref": "東京都",
    "city": "中央区",
    "address": "〒104-0061 東京都中央区銀座２丁目２−１９ 藤間ビル 1F",
    "lat": 35.6748871,
    "lng": 139.7657481,
    "rating": 4.0,
    "reviews": 0,
    "tags": [
      "cafe"
    ],
    "website": "https://www.facebook.com/cafebechet/",
    "phone": "03-3564-3176",
    "instagram": "",
    "category": "",
    "hours": {},
    "photos": [],
    "payment": [],
    "services": []
  },
  {
    "id": 167,
    "name": "コフィノワ",
    "pref": "東京都",
    "city": "台東区",
    "address": "〒111-0051 東京都台東区蔵前３丁目２０−５ ハッピーメゾン蔵前 １Ｆ",
    "lat": 35.7051669,
    "lng": 139.7917099,
    "rating": null,
    "reviews": 0,
    "tags": [
      "cafe"
    ],
    "website": "http://www.coffee-nova.com/",
    "phone": "03-5823-4445",
    "instagram": "",
    "category": "",
    "hours": {},
    "photos": [],
    "payment": [],
    "services": []
  },
  {
    "id": 168,
    "name": "ローキートーン珈琲店",
    "pref": "東京都",
    "city": "世田谷区",
    "address": "〒157-0073 東京都世田谷区砧６丁目３７−６ B号室",
    "lat": 35.6427026,
    "lng": 139.6091381,
    "rating": 4.5,
    "reviews": 0,
    "tags": [
      "cafe"
    ],
    "website": "http://lowkeytone.com/",
    "phone": "03-3416-0781",
    "instagram": "",
    "category": "",
    "hours": {},
    "photos": [],
    "payment": [],
    "services": []
  },
  {
    "id": 169,
    "name": "自家焙煎珈琲豆 Peppino Coffee Roaster",
    "pref": "東京都",
    "city": "台東区",
    "address": "〒111-0053 東京都台東区浅草橋２丁目２４−８ Epガーデン浅草橋 1F",
    "lat": 35.7005704,
    "lng": 139.7850022,
    "rating": 4.7,
    "reviews": 0,
    "tags": [
      "specialty"
    ],
    "website": "https://peppino.jp/?utm_source=GBP&utm_medium=GBP&utm_term=GBP&utm_content=GBP&utm_campaign=GBP",
    "phone": "03-5829-4245",
    "instagram": "",
    "category": "",
    "hours": {},
    "photos": [],
    "payment": [],
    "services": []
  },
  {
    "id": 170,
    "name": "神田伯剌西爾",
    "pref": "東京都",
    "city": "千代田区",
    "address": "〒101-0051 東京都千代田区神田神保町１丁目７−１ 書泉グランデ脇小宮山ビル",
    "lat": 35.6957409,
    "lng": 139.7595527,
    "rating": 4.2,
    "reviews": 0,
    "tags": [
      "cafe"
    ],
    "website": "https://k-brazil.jp/",
    "phone": "03-3291-2013",
    "instagram": "",
    "category": "",
    "hours": {},
    "photos": [],
    "payment": [],
    "services": []
  },
  {
    "id": 171,
    "name": "自家焙煎珈琲豆屋 豆金堂",
    "pref": "東京都",
    "city": "目黒区",
    "address": "〒153-0053 東京都目黒区五本木３丁目６−７",
    "lat": 35.6327001,
    "lng": 139.686531,
    "rating": 4.8,
    "reviews": 0,
    "tags": [
      "specialty"
    ],
    "website": "https://www.toukindou.com/",
    "phone": "070-9039-2951",
    "instagram": "",
    "category": "",
    "hours": {},
    "photos": [],
    "payment": [],
    "services": []
  },
  {
    "id": 172,
    "name": "自家焙煎珈琲喫茶 Café rive gauche",
    "pref": "東京都",
    "city": "目黒区",
    "address": "〒153-0042 東京都目黒区青葉台３丁目２０−１５ メゾンリヴゴーシュ 101",
    "lat": 35.649996,
    "lng": 139.691734,
    "rating": 4.7,
    "reviews": 0,
    "tags": [
      "specialty",
      "cafe"
    ],
    "website": "",
    "phone": "080-2339-1597",
    "instagram": "",
    "category": "",
    "hours": {},
    "photos": [],
    "payment": [],
    "services": []
  },
  {
    "id": 173,
    "name": "珈琲焙煎所 氷川下十番地",
    "pref": "東京都",
    "city": "文京区",
    "address": "〒112-0011 東京都文京区千石２丁目１−１−５",
    "lat": 35.7213812,
    "lng": 139.7399553,
    "rating": 4.5,
    "reviews": 0,
    "tags": [
      "specialty"
    ],
    "website": "https://m.facebook.com/%E7%8F%88%E7%90%B2%E7%84%99%E7%85%8E%E6%89%80-%E6%B0%B7%E5%B7%9D%E4%B8%8B%E5%8D%81%E7%95%AA%E5%9C%B0-477282279143345/",
    "phone": "03-6912-2424",
    "instagram": "",
    "category": "",
    "hours": {},
    "photos": [],
    "payment": [],
    "services": []
  },
  {
    "id": 174,
    "name": "コーヒーローストブラン",
    "pref": "東京都",
    "city": "品川区",
    "address": "〒142-0062 東京都品川区小山２丁目５−８",
    "lat": 35.6211799,
    "lng": 139.7075299,
    "rating": 4.2,
    "reviews": 0,
    "tags": [
      "cafe"
    ],
    "website": "",
    "phone": "03-3786-6730",
    "instagram": "",
    "category": "",
    "hours": {},
    "photos": [],
    "payment": [],
    "services": []
  },
  {
    "id": 175,
    "name": "自家焙煎珈琲 HARMONY",
    "pref": "東京都",
    "city": "世田谷区",
    "address": "〒154-0012 東京都世田谷区駒沢５丁目１５−１４",
    "lat": 35.6224858,
    "lng": 139.6545887,
    "rating": null,
    "reviews": 0,
    "tags": [
      "specialty"
    ],
    "website": "http://www.harmony2.net/indexs2.html",
    "phone": "050-3403-0807",
    "instagram": "",
    "category": "",
    "hours": {},
    "photos": [],
    "payment": [],
    "services": []
  },
  {
    "id": 176,
    "name": "カフェ バッハ",
    "pref": "東京都",
    "city": "台東区",
    "address": "〒111-0021 東京都台東区日本堤１丁目２３−９",
    "lat": 35.7268157,
    "lng": 139.8003968,
    "rating": 4.4,
    "reviews": 0,
    "tags": [
      "cafe"
    ],
    "website": "http://www.bach-kaffee.co.jp/",
    "phone": "03-3875-2669",
    "instagram": "",
    "category": "",
    "hours": {},
    "photos": [],
    "payment": [],
    "services": []
  },
  {
    "id": 177,
    "name": "常盤珈琲焙煎所 赤羽店",
    "pref": "東京都",
    "city": "都北区",
    "address": "〒115-0055 東京都北区赤羽西１丁目３９−１",
    "lat": 35.7791096,
    "lng": 139.719371,
    "rating": 4.2,
    "reviews": 0,
    "tags": [
      "specialty"
    ],
    "website": "https://tokiwacoffee.com/shops/akabane/",
    "phone": "03-5948-8533",
    "instagram": "",
    "category": "",
    "hours": {},
    "photos": [],
    "payment": [],
    "services": []
  },
  {
    "id": 178,
    "name": "TINY PONTA COFFEE 深大寺店",
    "pref": "東京都",
    "city": "三鷹市",
    "address": "〒181-0016 東京都三鷹市深大寺２丁目４０−１７ 第一黒澤コーポ店舗 101",
    "lat": 35.688393,
    "lng": 139.5382222,
    "rating": null,
    "reviews": 0,
    "tags": [
      "cafe"
    ],
    "website": "https://tiny-ponta-coffee.com/",
    "phone": "0422-26-4764",
    "instagram": "",
    "category": "",
    "hours": {},
    "photos": [],
    "payment": [],
    "services": []
  },
  {
    "id": 179,
    "name": "平井珈琲 喫茶&焙煎所",
    "pref": "東京都",
    "city": "江戸川区",
    "address": "〒132-0035 東京都江戸川区平井３丁目２７−１３",
    "lat": 35.7054731,
    "lng": 139.8427479,
    "rating": 4.8,
    "reviews": 0,
    "tags": [
      "specialty",
      "cafe"
    ],
    "website": "https://www.instagram.com/hirai_coffee/",
    "phone": "",
    "instagram": "",
    "category": "",
    "hours": {},
    "photos": [],
    "payment": [],
    "services": []
  },
  {
    "id": 180,
    "name": "森山珈琲 三宿焙煎所",
    "pref": "東京都",
    "city": "世田谷区",
    "address": "〒154-0002 東京都世田谷区下馬２丁目４４−１１",
    "lat": 35.6443863,
    "lng": 139.6792846,
    "rating": null,
    "reviews": 0,
    "tags": [
      "specialty"
    ],
    "website": "https://tabelog.com/tokyo/A1317/A131705/13255534/",
    "phone": "03-5787-6689",
    "instagram": "",
    "category": "",
    "hours": {},
    "photos": [],
    "payment": [],
    "services": []
  },
  {
    "id": 181,
    "name": "緑の珈琲豆焙煎四谷",
    "pref": "東京都",
    "city": "新宿区",
    "address": "〒160-0004 東京都新宿区四谷２丁目９−１５ サンサーラ四谷ビル 103号",
    "lat": 35.6873448,
    "lng": 139.7259861,
    "rating": 4.3,
    "reviews": 0,
    "tags": [
      "specialty"
    ],
    "website": "",
    "phone": "03-5315-0295",
    "instagram": "",
    "category": "",
    "hours": {},
    "photos": [],
    "payment": [],
    "services": []
  },
  {
    "id": 182,
    "name": "PANTRY COFFEE パントリー コーヒー",
    "pref": "東京都",
    "city": "調布市",
    "address": "〒182-0034 東京都調布市下石原３丁目３１−１",
    "lat": 35.6533349,
    "lng": 139.5320826,
    "rating": 4.6,
    "reviews": 0,
    "tags": [
      "cafe"
    ],
    "website": "https://pantry-coffee.com/",
    "phone": "042-426-9574",
    "instagram": "",
    "category": "",
    "hours": {},
    "photos": [],
    "payment": [],
    "services": []
  },
  {
    "id": 183,
    "name": "やなか珈琲店 2k540店",
    "pref": "東京都",
    "city": "台東区",
    "address": "〒110-0005 東京都台東区上野５丁目９−７ AKI-OKA ARTISAN 2k540 D棟",
    "lat": 35.703388,
    "lng": 139.7740224,
    "rating": 4.1,
    "reviews": 0,
    "tags": [
      "cafe"
    ],
    "website": "http://www.yanaka-coffeeten.com/",
    "phone": "03-6803-2713",
    "instagram": "",
    "category": "",
    "hours": {},
    "photos": [],
    "payment": [],
    "services": []
  },
  {
    "id": 184,
    "name": "街の珈琲屋さん自家焙煎珈琲豆beans",
    "pref": "東京都",
    "city": "品川区",
    "address": "〒142-0043 東京都品川区二葉１丁目１９−１ アンシャンテ大井 １０１号",
    "lat": 35.6071172,
    "lng": 139.7298161,
    "rating": 4.5,
    "reviews": 0,
    "tags": [
      "specialty"
    ],
    "website": "http://63coffee.tokyo/",
    "phone": "03-6421-6977",
    "instagram": "",
    "category": "",
    "hours": {},
    "photos": [],
    "payment": [],
    "services": []
  },
  {
    "id": 185,
    "name": "喫茶店 東京コーヒー",
    "pref": "東京都",
    "city": "稲城市",
    "address": "〒206-0823 東京都稲城市平尾１丁目４４−２３",
    "lat": 35.6117691,
    "lng": 139.4922609,
    "rating": null,
    "reviews": 0,
    "tags": [
      "cafe"
    ],
    "website": "",
    "phone": "042-331-2589",
    "instagram": "",
    "category": "",
    "hours": {},
    "photos": [],
    "payment": [],
    "services": []
  },
  {
    "id": 186,
    "name": "南乃珈琲船",
    "pref": "東京都",
    "city": "世田谷区",
    "address": "〒155-0031 東京都世田谷区北沢３丁目１７−３",
    "lat": 35.6647882,
    "lng": 139.6699478,
    "rating": 4.6,
    "reviews": 0,
    "tags": [
      "cafe"
    ],
    "website": "http://www.minamino-coffee-sen.com/",
    "phone": "03-6407-9857",
    "instagram": "",
    "category": "",
    "hours": {},
    "photos": [],
    "payment": [],
    "services": []
  },
  {
    "id": 187,
    "name": "表参道珈琲館",
    "pref": "東京都",
    "city": "渋谷区",
    "address": "〒150-0011 東京都渋谷区東１丁目３−５",
    "lat": 35.6573584,
    "lng": 139.7085375,
    "rating": 4.8,
    "reviews": 0,
    "tags": [
      "cafe"
    ],
    "website": "https://omotesando-coffee-kcg.com/",
    "phone": "",
    "instagram": "",
    "category": "",
    "hours": {},
    "photos": [],
    "payment": [],
    "services": []
  },
  {
    "id": 188,
    "name": "COFFEE ROAST EL BLANCO",
    "pref": "東京都",
    "city": "品川区",
    "address": "〒142-0064 東京都品川区旗の台５丁目８−７",
    "lat": 35.6039019,
    "lng": 139.7036481,
    "rating": 4.4,
    "reviews": 0,
    "tags": [
      "cafe"
    ],
    "website": "https://www.el-blanco.com/",
    "phone": "03-6676-1439",
    "instagram": "",
    "category": "",
    "hours": {},
    "photos": [],
    "payment": [],
    "services": []
  },
  {
    "id": 189,
    "name": "Nanna Nap & Coffee",
    "pref": "東京都",
    "city": "豊島区",
    "address": "〒170-0003 東京都豊島区駒込１丁目２６−３",
    "lat": 35.7365708,
    "lng": 139.7492192,
    "rating": 4.5,
    "reviews": 0,
    "tags": [
      "cafe"
    ],
    "website": "https://nannanap.theshop.jp/",
    "phone": "080-3177-3093",
    "instagram": "",
    "category": "",
    "hours": {},
    "photos": [],
    "payment": [],
    "services": []
  },
  {
    "id": 190,
    "name": "上板橋珈琲焙煎所",
    "pref": "東京都",
    "city": "板橋区",
    "address": "〒174-0076 東京都板橋区上板橋３丁目４−１１ 二村ビル 1F",
    "lat": 35.7651359,
    "lng": 139.676048,
    "rating": 4.5,
    "reviews": 0,
    "tags": [
      "specialty"
    ],
    "website": "https://jikabaisen-kissa.com/",
    "phone": "",
    "instagram": "",
    "category": "",
    "hours": {},
    "photos": [],
    "payment": [],
    "services": []
  },
  {
    "id": 191,
    "name": "豆工房 コーヒーロースト 調布深大寺店",
    "pref": "東京都",
    "city": "調布市",
    "address": "〒182-0015 東京都調布市八雲台１丁目２７−６",
    "lat": 35.6565406,
    "lng": 139.5520145,
    "rating": 4.8,
    "reviews": 0,
    "tags": [
      "cafe"
    ],
    "website": "http://roast.jp/",
    "phone": "042-444-5180",
    "instagram": "",
    "category": "",
    "hours": {},
    "photos": [],
    "payment": [],
    "services": []
  },
  {
    "id": 192,
    "name": "Cloud Coffee Roasters",
    "pref": "東京都",
    "city": "墨田区",
    "address": "〒130-0013 東京都墨田区錦糸２丁目３−２ 1F",
    "lat": 35.6980066,
    "lng": 139.8120061,
    "rating": 4.1,
    "reviews": 0,
    "tags": [
      "specialty",
      "cafe"
    ],
    "website": "https://www.instagram.com/cloud.coffee.roasters/",
    "phone": "03-3622-0316",
    "instagram": "",
    "category": "",
    "hours": {},
    "photos": [],
    "payment": [],
    "services": []
  },
  {
    "id": 193,
    "name": "すずめ珈琲",
    "pref": "東京都",
    "city": "練馬区",
    "address": "〒176-0034 東京都練馬区富士見台２丁目１８−１４",
    "lat": 35.7360856,
    "lng": 139.6252451,
    "rating": 4.6,
    "reviews": 0,
    "tags": [
      "cafe"
    ],
    "website": "https://www.suzumecoffee.com/",
    "phone": "",
    "instagram": "",
    "category": "",
    "hours": {},
    "photos": [],
    "payment": [],
    "services": []
  },
  {
    "id": 194,
    "name": "日比谷焙煎珈琲",
    "pref": "東京都",
    "city": "千代田区",
    "address": "〒100-0006 東京都千代田区有楽町１丁目１−２ 東京ミッドタウン日比谷 B1",
    "lat": 35.6736867,
    "lng": 139.759231,
    "rating": 3.6,
    "reviews": 0,
    "tags": [
      "specialty"
    ],
    "website": "https://www.hibiya.tokyo-midtown.com/jp/restaurants/80610/",
    "phone": "03-3519-6650",
    "instagram": "",
    "category": "",
    "hours": {},
    "photos": [],
    "payment": [],
    "services": []
  },
  {
    "id": 195,
    "name": "志村電機珈琲焙煎所",
    "pref": "東京都",
    "city": "練馬区",
    "address": "〒179-0074 東京都練馬区春日町１丁目１１−１",
    "lat": 35.7474094,
    "lng": 139.6477181,
    "rating": null,
    "reviews": 0,
    "tags": [
      "specialty"
    ],
    "website": "http://www.simdencoffee.com/",
    "phone": "03-3990-5560",
    "instagram": "",
    "category": "",
    "hours": {},
    "photos": [],
    "payment": [],
    "services": []
  },
  {
    "id": 196,
    "name": "等々力八丁目焙煎所",
    "pref": "東京都",
    "city": "世田谷区",
    "address": "〒158-0082 東京都世田谷区等々力８丁目２４−１１ エフワン等々力",
    "lat": 35.6172451,
    "lng": 139.6508486,
    "rating": 4.7,
    "reviews": 0,
    "tags": [
      "specialty"
    ],
    "website": "",
    "phone": "",
    "instagram": "",
    "category": "",
    "hours": {},
    "photos": [],
    "payment": [],
    "services": []
  },
  {
    "id": 197,
    "name": "サイ 【 深煎珈琲専門店 】",
    "pref": "東京都",
    "city": "中野区",
    "address": "〒164-0013 東京都中野区弥生町３丁目７−９ メゾン・モンターニュ",
    "lat": 35.688485,
    "lng": 139.6750528,
    "rating": null,
    "reviews": 0,
    "tags": [
      "cafe"
    ],
    "website": "https://www.instagram.com/coffee__sai/",
    "phone": "080-5632-7297",
    "instagram": "",
    "category": "",
    "hours": {},
    "photos": [],
    "payment": [],
    "services": []
  },
  {
    "id": 198,
    "name": "マーメイドコーヒーロースターズ明大前",
    "pref": "東京都",
    "city": "世田谷区",
    "address": "〒156-0043 東京都世田谷区松原１丁目３６−１１ 西谷ビル",
    "lat": 35.6687756,
    "lng": 139.6512809,
    "rating": 4.8,
    "reviews": 0,
    "tags": [
      "specialty"
    ],
    "website": "https://mermaid-coffee-roasters.com/",
    "phone": "03-6265-8989",
    "instagram": "",
    "category": "",
    "hours": {},
    "photos": [],
    "payment": [],
    "services": []
  },
  {
    "id": 199,
    "name": "カフェ 摩天楼珈琲 シェアリングコーヒーショップ 日本橋",
    "pref": "東京都",
    "city": "中央区",
    "address": "〒103-0002 東京都中央区日本橋馬喰町１丁目６−１５",
    "lat": 35.6931441,
    "lng": 139.7828862,
    "rating": 4.8,
    "reviews": 0,
    "tags": [
      "cafe"
    ],
    "website": "https://www.instagram.com/matenrou_coffee/",
    "phone": "",
    "instagram": "",
    "category": "",
    "hours": {},
    "photos": [],
    "payment": [],
    "services": []
  },
  {
    "id": 200,
    "name": "Granary’s Coffee",
    "pref": "東京都",
    "city": "都北区",
    "address": "〒114-0003 東京都北区豊島１丁目７−６ メゾン王子２",
    "lat": 35.7569294,
    "lng": 139.7393154,
    "rating": 4.7,
    "reviews": 0,
    "tags": [
      "cafe"
    ],
    "website": "https://instagram.com/granaryscoffee_jp/",
    "phone": "",
    "instagram": "",
    "category": "",
    "hours": {},
    "photos": [],
    "payment": [],
    "services": []
  },
  {
    "id": 201,
    "name": "AALIYA COFFEE ROASTERS",
    "pref": "東京都",
    "city": "新宿区",
    "address": "〒160-0022 東京都新宿区新宿３丁目１−１７ ビル山本 2F",
    "lat": 35.6904168,
    "lng": 139.7048384,
    "rating": 4.0,
    "reviews": 0,
    "tags": [
      "specialty",
      "cafe"
    ],
    "website": "https://www.instagram.com/aaliyaroasters/",
    "phone": "03-6413-1678",
    "instagram": "",
    "category": "",
    "hours": {},
    "photos": [],
    "payment": [],
    "services": []
  },
  {
    "id": 202,
    "name": "COFFEE COUNTY Tokyo",
    "pref": "東京都",
    "city": "世田谷区",
    "address": "〒155-0031 東京都世田谷区北沢１丁目３０−３ ホーメンス北沢",
    "lat": 35.6624273,
    "lng": 139.6722475,
    "rating": 4.6,
    "reviews": 0,
    "tags": [
      "cafe"
    ],
    "website": "https://instagram.com/coffeecountytokyo/",
    "phone": "03-5790-9909",
    "instagram": "",
    "category": "",
    "hours": {},
    "photos": [],
    "payment": [],
    "services": []
  },
  {
    "id": 203,
    "name": "GLITCH COFFEE GINZA",
    "pref": "東京都",
    "city": "中央区",
    "address": "〒104-0061 東京都中央区銀座４丁目１４−８ VORT銀座イーストIII 1階",
    "lat": 35.6689171,
    "lng": 139.7686324,
    "rating": 4.3,
    "reviews": 0,
    "tags": [
      "cafe"
    ],
    "website": "https://glitchcoffee.com/",
    "phone": "03-6260-6638",
    "instagram": "",
    "category": "",
    "hours": {},
    "photos": [],
    "payment": [],
    "services": []
  },
  {
    "id": 204,
    "name": "SWELL COFFEE ROASTERS",
    "pref": "東京都",
    "city": "目黒区",
    "address": "〒153-0051 東京都目黒区上目黒１丁目１５−１１ カーサ上目黒 ピッコラ中目黒1階",
    "lat": 35.6465696,
    "lng": 139.698081,
    "rating": null,
    "reviews": 0,
    "tags": [
      "specialty"
    ],
    "website": "http://swell-c.com/",
    "phone": "",
    "instagram": "",
    "category": "",
    "hours": {},
    "photos": [],
    "payment": [],
    "services": []
  },
  {
    "id": 205,
    "name": "ITSUKI Coffee Roastery",
    "pref": "東京都",
    "city": "中野区",
    "address": "〒164-0003 東京都中野区東中野４丁目４−３ 山内ビル 1階",
    "lat": 35.706489,
    "lng": 139.6842393,
    "rating": 4.6,
    "reviews": 0,
    "tags": [
      "specialty"
    ],
    "website": "http://www.itsuki-coffee.com/",
    "phone": "03-5937-5757",
    "instagram": "",
    "category": "",
    "hours": {},
    "photos": [],
    "payment": [],
    "services": []
  },
  {
    "id": 206,
    "name": "VERVE COFFEE ROASTERS NEWoMan SHINJUKU",
    "pref": "東京都",
    "city": "渋谷区",
    "address": "〒151-0051 東京都渋谷区千駄ケ谷５丁目２４−５５ NEWoMan 新宿 ２Ｆ",
    "lat": 35.6883844,
    "lng": 139.7012194,
    "rating": 4.3,
    "reviews": 0,
    "tags": [
      "specialty"
    ],
    "website": "https://www.vervecoffee.jp/",
    "phone": "03-6380-1178",
    "instagram": "",
    "category": "",
    "hours": {},
    "photos": [],
    "payment": [],
    "services": []
  },
  {
    "id": 207,
    "name": "WAVY COFFEE ROASTERS SHIBUYA",
    "pref": "東京都",
    "city": "渋谷区",
    "address": "〒150-0041 東京都渋谷区神南１丁目１４−７ ワイズ神南ビル 2F",
    "lat": 35.6636478,
    "lng": 139.6999735,
    "rating": 4.3,
    "reviews": 0,
    "tags": [
      "specialty",
      "cafe"
    ],
    "website": "https://instagram.com/wavycoffeeshibuya/",
    "phone": "",
    "instagram": "",
    "category": "",
    "hours": {},
    "photos": [],
    "payment": [],
    "services": []
  },
  {
    "id": 208,
    "name": "LUSH-COFFEE ROASTER and LABORATORY / 東ティモールコーヒーラボ",
    "pref": "東京都",
    "city": "",
    "address": "園生ビル 1f, ３丁目-３３ 千住 足立区 東京都 120-0034",
    "lat": 35.7505884,
    "lng": 139.8028064,
    "rating": 4.3,
    "reviews": 0,
    "tags": [
      "specialty"
    ],
    "website": "https://lush-coffee.com/#",
    "phone": "03-3881-3558",
    "instagram": "",
    "category": "",
    "hours": {},
    "photos": [],
    "payment": [],
    "services": []
  },